<?xml version="1.0" encoding="UTF-8"?><!--
  ~ Copyright (c) Erik Malmstrom-Partridge 2014. Do not distribute, edit, or modify in anyway, without direct written consent of Erik Malmstrom-Partridge.
  -->

<Region>
	<Name>Florida</Name>
	<SubRegion>
		<SubName>Alachua</SubName>
		<Population>253451</Population>
		<Income>42818</Income>
		<Latitude>29.67574</Latitude>
		<Longitude>-82.357221</Longitude>
	</SubRegion>
	<SubRegion>
		<SubName>Baker</SubName>
		<Population>27013</Population>
		<Income>47149</Income>
		<Latitude>30.324442</Latitude>
		<Longitude>-82.302284</Longitude>
	</SubRegion>
	<SubRegion>
		<SubName>Bay</SubName>
		<Population>174987</Population>
		<Income>47364</Income>
		<Latitude>30.238107</Latitude>
		<Longitude>-85.631418</Longitude>
	</SubRegion>
	<SubRegion>
		<SubName>Bradford</SubName>
		<Population>26850</Population>
		<Income>39082</Income>
		<Latitude>29.952386</Latitude>
		<Longitude>-82.166599</Longitude>
	</SubRegion>
	<SubRegion>
		<SubName>Brevard</SubName>
		<Population>550823</Population>
		<Income>49099</Income>
		<Latitude>28.298304</Latitude>
		<Longitude>-80.700331</Longitude>
	</SubRegion>
	<SubRegion>
		<SubName>Broward</SubName>
		<Population>1838844</Population>
		<Income>51603</Income>
		<Latitude>26.193535</Latitude>
		<Longitude>-80.476683</Longitude>
	</SubRegion>
	<SubRegion>
		<SubName>Calhoun</SubName>
		<Population>14682</Population>
		<Income>32480</Income>
		<Latitude>30.388801</Latitude>
		<Longitude>-85.197915</Longitude>
	</SubRegion>
	<SubRegion>
		<SubName>Charlotte</SubName>
		<Population>164736</Population>
		<Income>44596</Income>
		<Latitude>26.868933</Latitude>
		<Longitude>-81.941077</Longitude>
	</SubRegion>
	<SubRegion>
		<SubName>Citrus</SubName>
		<Population>139271</Population>
		<Income>39034</Income>
		<Latitude>28.843628</Latitude>
		<Longitude>-82.524796</Longitude>
	</SubRegion>
	<SubRegion>
		<SubName>Clay</SubName>
		<Population>196399</Population>
		<Income>59649</Income>
		<Latitude>29.986584</Latitude>
		<Longitude>-81.865036</Longitude>
	</SubRegion>
	<SubRegion>
		<SubName>Collier</SubName>
		<Population>339642</Population>
		<Income>56104</Income>
		<Latitude>26.118736</Latitude>
		<Longitude>-81.40092</Longitude>
	</SubRegion>
	<SubRegion>
		<SubName>Columbia</SubName>
		<Population>67543</Population>
		<Income>37534</Income>
		<Latitude>30.221333</Latitude>
		<Longitude>-82.623168</Longitude>
	</SubRegion>
	<SubRegion>
		<SubName>DeSoto</SubName>
		<Population>34517</Population>
		<Income>35683</Income>
		<Latitude>27.190581</Latitude>
		<Longitude>-81.806253</Longitude>
	</SubRegion>
	<SubRegion>
		<SubName>Dixie</SubName>
		<Population>15940</Population>
		<Income>35476</Income>
		<Latitude>29.580899</Latitude>
		<Longitude>-83.195666</Longitude>
	</SubRegion>
	<SubRegion>
		<SubName>Duval</SubName>
		<Population>885855</Population>
		<Income>48906</Income>
		<Latitude>30.335245</Latitude>
		<Longitude>-81.648113</Longitude>
	</SubRegion>
	<SubRegion>
		<SubName>Escambia</SubName>
		<Population>305817</Population>
		<Income>43806</Income>
		<Latitude>30.611648</Latitude>
		<Longitude>-87.338948</Longitude>
	</SubRegion>
	<SubRegion>
		<SubName>Flagler</SubName>
		<Population>99956</Population>
		<Income>48134</Income>
		<Latitude>29.474912</Latitude>
		<Longitude>-81.286305</Longitude>
	</SubRegion>
	<SubRegion>
		<SubName>Franklin</SubName>
		<Population>11598</Population>
		<Income>37428</Income>
		<Latitude>29.810176</Latitude>
		<Longitude>-84.799174</Longitude>
	</SubRegion>
	<SubRegion>
		<SubName>Gadsden</SubName>
		<Population>46194</Population>
		<Income>35593</Income>
		<Latitude>30.578687</Latitude>
		<Longitude>-84.612607</Longitude>
	</SubRegion>
	<SubRegion>
		<SubName>Gilchrist</SubName>
		<Population>16931</Population>
		<Income>36521</Income>
		<Latitude>29.723456</Latitude>
		<Longitude>-82.795801</Longitude>
	</SubRegion>
	<SubRegion>
		<SubName>Glades</SubName>
		<Population>13345</Population>
		<Income>35219</Income>
		<Latitude>26.95481</Latitude>
		<Longitude>-81.19082</Longitude>
	</SubRegion>
	<SubRegion>
		<SubName>Gulf</SubName>
		<Population>15829</Population>
		<Income>39535</Income>
		<Latitude>29.907257</Latitude>
		<Longitude>-85.256537</Longitude>
	</SubRegion>
	<SubRegion>
		<SubName>Hamilton</SubName>
		<Population>14354</Population>
		<Income>36875</Income>
		<Latitude>30.491226</Latitude>
		<Longitude>-82.951069</Longitude>
	</SubRegion>
	<SubRegion>
		<SubName>Hardee</SubName>
		<Population>27519</Population>
		<Income>36115</Income>
		<Latitude>27.492846</Latitude>
		<Longitude>-81.82158</Longitude>
	</SubRegion>
	<SubRegion>
		<SubName>Hendry</SubName>
		<Population>37471</Population>
		<Income>35736</Income>
		<Latitude>26.539967</Latitude>
		<Longitude>-81.152114</Longitude>
	</SubRegion>
	<SubRegion>
		<SubName>Hernando</SubName>
		<Population>174441</Population>
		<Income>41098</Income>
		<Latitude>28.573043</Latitude>
		<Longitude>-82.466227</Longitude>
	</SubRegion>
	<SubRegion>
		<SubName>Highlands</SubName>
		<Population>97616</Population>
		<Income>35350</Income>
		<Latitude>27.342627</Latitude>
		<Longitude>-81.340921</Longitude>
	</SubRegion>
	<SubRegion>
		<SubName>Hillsborough</SubName>
		<Population>1291578</Population>
		<Income>49450</Income>
		<Latitude>27.90659</Latitude>
		<Longitude>-82.349568</Longitude>
	</SubRegion>
	<SubRegion>
		<SubName>Holmes</SubName>
		<Population>19717</Population>
		<Income>34928</Income>
		<Latitude>30.866222</Latitude>
		<Longitude>-85.812959</Longitude>
	</SubRegion>
	<SubRegion>
		<SubName>IndianRiver</SubName>
		<Population>141994</Population>
		<Income>45274</Income>
		<Latitude>0.0</Latitude>
		<Longitude>0.0</Longitude>
	</SubRegion>
	<SubRegion>
		<SubName>Jackson</SubName>
		<Population>48922</Population>
		<Income>38917</Income>
		<Latitude>30.78925</Latitude>
		<Longitude>-85.208813</Longitude>
	</SubRegion>
	<SubRegion>
		<SubName>Jefferson</SubName>
		<Population>14194</Population>
		<Income>41163</Income>
		<Latitude>30.424558</Latitude>
		<Longitude>-83.890859</Longitude>
	</SubRegion>
	<SubRegion>
		<SubName>Lafayette</SubName>
		<Population>8848</Population>
		<Income>44180</Income>
		<Latitude>29.990066</Latitude>
		<Longitude>-83.17851</Longitude>
	</SubRegion>
	<SubRegion>
		<SubName>Lake</SubName>
		<Population>308034</Population>
		<Income>45663</Income>
		<Latitude>28.764113</Latitude>
		<Longitude>-81.712282</Longitude>
	</SubRegion>
	<SubRegion>
		<SubName>Lee</SubName>
		<Population>661115</Population>
		<Income>48453</Income>
		<Latitude>26.551634</Latitude>
		<Longitude>-81.892509</Longitude>
	</SubRegion>
	<SubRegion>
		<SubName>Leon</SubName>
		<Population>281845</Population>
		<Income>45915</Income>
		<Latitude>30.45931</Latitude>
		<Longitude>-84.2778</Longitude>
	</SubRegion>
	<SubRegion>
		<SubName>Levy</SubName>
		<Population>39644</Population>
		<Income>35093</Income>
		<Latitude>29.284457</Latitude>
		<Longitude>-82.783462</Longitude>
	</SubRegion>
	<SubRegion>
		<SubName>Liberty</SubName>
		<Population>8349</Population>
		<Income>39225</Income>
		<Latitude>30.259849</Latitude>
		<Longitude>-84.86858</Longitude>
	</SubRegion>
	<SubRegion>
		<SubName>Madison</SubName>
		<Population>18728</Population>
		<Income>34361</Income>
		<Latitude>30.447233</Latitude>
		<Longitude>-83.470416</Longitude>
	</SubRegion>
	<SubRegion>
		<SubName>Manatee</SubName>
		<Population>342106</Population>
		<Income>47910</Income>
		<Latitude>27.481682</Latitude>
		<Longitude>-82.368767</Longitude>
	</SubRegion>
	<SubRegion>
		<SubName>Marion</SubName>
		<Population>337362</Population>
		<Income>39770</Income>
		<Latitude>29.202805</Latitude>
		<Longitude>-82.0431</Longitude>
	</SubRegion>
	<SubRegion>
		<SubName>Martin</SubName>
		<Population>151263</Population>
		<Income>50573</Income>
		<Latitude>27.079954</Latitude>
		<Longitude>-80.398211</Longitude>
	</SubRegion>
	<SubRegion>
		<SubName>Monroe</SubName>
		<Population>76351</Population>
		<Income>53418</Income>
		<Latitude>25.601043</Latitude>
		<Longitude>-81.206777</Longitude>
	</SubRegion>
	<SubRegion>
		<SubName>Nassau</SubName>
		<Population>75710</Population>
		<Income>57163</Income>
		<Latitude>30.605926</Latitude>
		<Longitude>-81.764929</Longitude>
	</SubRegion>
	<SubRegion>
		<SubName>Okaloosa</SubName>
		<Population>193811</Population>
		<Income>54118</Income>
		<Latitude>30.665858</Latitude>
		<Longitude>-86.594194</Longitude>
	</SubRegion>
	<SubRegion>
		<SubName>Okeechobee</SubName>
		<Population>39330</Population>
		<Income>34289</Income>
		<Latitude>27.385592</Latitude>
		<Longitude>-80.887388</Longitude>
	</SubRegion>
	<SubRegion>
		<SubName>Orange</SubName>
		<Population>1225267</Population>
		<Income>48429</Income>
		<Latitude>28.514435</Latitude>
		<Longitude>-81.323295</Longitude>
	</SubRegion>
	<SubRegion>
		<SubName>Osceola</SubName>
		<Population>298504</Population>
		<Income>44887</Income>
		<Latitude>28.059027</Latitude>
		<Longitude>-81.139312</Longitude>
	</SubRegion>
	<SubRegion>
		<SubName>PalmBeach</SubName>
		<Population>1372171</Population>
		<Income>52806</Income>
		<Latitude>0.0</Latitude>
		<Longitude>0.0</Longitude>
	</SubRegion>
	<SubRegion>
		<SubName>Pasco</SubName>
		<Population>475502</Population>
		<Income>43787</Income>
		<Latitude>28.307737</Latitude>
		<Longitude>-82.464718</Longitude>
	</SubRegion>
	<SubRegion>
		<SubName>Pinellas</SubName>
		<Population>929048</Population>
		<Income>46051</Income>
		<Latitude>27.903122</Latitude>
		<Longitude>-82.739518</Longitude>
	</SubRegion>
	<SubRegion>
		<SubName>Polk</SubName>
		<Population>623009</Population>
		<Income>43606</Income>
		<Latitude>27.953115</Latitude>
		<Longitude>-81.692783</Longitude>
	</SubRegion>
	<SubRegion>
		<SubName>Putnam</SubName>
		<Population>72577</Population>
		<Income>34429</Income>
		<Latitude>29.606006</Latitude>
		<Longitude>-81.740894</Longitude>
	</SubRegion>
	<SubRegion>
		<SubName>St.Johns</SubName>
		<Population>209647</Population>
		<Income>64346</Income>
		<Latitude>0.0</Latitude>
		<Longitude>0.0</Longitude>
	</SubRegion>
	<SubRegion>
		<SubName>St.Lucie</SubName>
		<Population>286832</Population>
		<Income>43923</Income>
		<Latitude>0.0</Latitude>
		<Longitude>0.0</Longitude>
	</SubRegion>
	<SubRegion>
		<SubName>SantaRosa</SubName>
		<Population>161096</Population>
		<Income>57491</Income>
		<Latitude>0.0</Latitude>
		<Longitude>0.0</Longitude>
	</SubRegion>
	<SubRegion>
		<SubName>Sarasota</SubName>
		<Population>390429</Population>
		<Income>48900</Income>
		<Latitude>27.184386</Latitude>
		<Longitude>-82.365835</Longitude>
	</SubRegion>
	<SubRegion>
		<SubName>Seminole</SubName>
		<Population>436041</Population>
		<Income>58577</Income>
		<Latitude>28.690079</Latitude>
		<Longitude>-81.13198</Longitude>
	</SubRegion>
	<SubRegion>
		<SubName>Sumter</SubName>
		<Population>107056</Population>
		<Income>46981</Income>
		<Latitude>28.714294</Latitude>
		<Longitude>-82.074715</Longitude>
	</SubRegion>
	<SubRegion>
		<SubName>Suwannee</SubName>
		<Population>43734</Population>
		<Income>36159</Income>
		<Latitude>30.189244</Latitude>
		<Longitude>-82.992754</Longitude>
	</SubRegion>
	<SubRegion>
		<SubName>Taylor</SubName>
		<Population>22857</Population>
		<Income>34634</Income>
		<Latitude>30.009908</Latitude>
		<Longitude>-83.609483</Longitude>
	</SubRegion>
	<SubRegion>
		<SubName>Union</SubName>
		<Population>15136</Population>
		<Income>43750</Income>
		<Latitude>30.05428</Latitude>
		<Longitude>-82.366918</Longitude>
	</SubRegion>
	<SubRegion>
		<SubName>Volusia</SubName>
		<Population>500800</Population>
		<Income>43419</Income>
		<Latitude>29.057698</Latitude>
		<Longitude>-81.161804</Longitude>
	</SubRegion>
	<SubRegion>
		<SubName>Wakulla</SubName>
		<Population>31022</Population>
		<Income>53385</Income>
		<Latitude>30.140358</Latitude>
		<Longitude>-84.375112</Longitude>
	</SubRegion>
	<SubRegion>
		<SubName>Walton</SubName>
		<Population>59807</Population>
		<Income>44254</Income>
		<Latitude>30.631211</Latitude>
		<Longitude>-86.176614</Longitude>
	</SubRegion>
	<SubRegion>
		<SubName>Washington</SubName>
		<Population>24624</Population>
		<Income>38536</Income>
		<Latitude>30.602217</Latitude>
		<Longitude>-85.662797</Longitude>
	</SubRegion>
</Region>