<?xml version="1.0" encoding="UTF-8"?><!--
  ~ Copyright (c) Erik Malmstrom-Partridge 2014. Do not distribute, edit, or modify in anyway, without direct written consent of Erik Malmstrom-Partridge.
  -->

<Region>
	<Name>Maryland</Name>
	<SubRegion>
		<SubName>Allegany</SubName>
		<Population>73521</Population>
		<Income>39087</Income>
		<Latitude>39.612313</Latitude>
		<Longitude>-78.703104</Longitude>
	</SubRegion>
	<SubRegion>
		<SubName>AnneArundel</SubName>
		<Population>555743</Population>
		<Income>86987</Income>
		<Latitude>38.993579</Latitude>
		<Longitude>-76.560484</Longitude>
	</SubRegion>
	<SubRegion>
		<SubName>Baltimore</SubName>
		<Population>823015</Population>
		<Income>66068</Income>
		<Latitude>39.443167</Latitude>
		<Longitude>-76.616569</Longitude>
	</SubRegion>
	<SubRegion>
		<SubName>Calvert</SubName>
		<Population>90484</Population>
		<Income>92395</Income>
		<Latitude>38.52261</Latitude>
		<Longitude>-76.529494</Longitude>
	</SubRegion>
	<SubRegion>
		<SubName>Caroline</SubName>
		<Population>32693</Population>
		<Income>60735</Income>
		<Latitude>38.871531</Latitude>
		<Longitude>-75.831662</Longitude>
	</SubRegion>
	<SubRegion>
		<SubName>Carroll</SubName>
		<Population>167564</Population>
		<Income>83155</Income>
		<Latitude>39.563318</Latitude>
		<Longitude>-77.015353</Longitude>
	</SubRegion>
	<SubRegion>
		<SubName>Cecil</SubName>
		<Population>101913</Population>
		<Income>66025</Income>
		<Latitude>39.562354</Latitude>
		<Longitude>-75.941585</Longitude>
	</SubRegion>
	<SubRegion>
		<SubName>Charles</SubName>
		<Population>152864</Population>
		<Income>93063</Income>
		<Latitude>38.472853</Latitude>
		<Longitude>-77.015427</Longitude>
	</SubRegion>
	<SubRegion>
		<SubName>Dorchester</SubName>
		<Population>32660</Population>
		<Income>46199</Income>
		<Latitude>38.429196</Latitude>
		<Longitude>-76.047433</Longitude>
	</SubRegion>
	<SubRegion>
		<SubName>Frederick</SubName>
		<Population>241409</Population>
		<Income>83706</Income>
		<Latitude>39.470429</Latitude>
		<Longitude>-77.397624</Longitude>
	</SubRegion>
	<SubRegion>
		<SubName>Garrett</SubName>
		<Population>29889</Population>
		<Income>45354</Income>
		<Latitude>39.547299</Latitude>
		<Longitude>-79.274619</Longitude>
	</SubRegion>
	<SubRegion>
		<SubName>Harford</SubName>
		<Population>249215</Population>
		<Income>80441</Income>
		<Latitude>39.537429</Latitude>
		<Longitude>-76.299789</Longitude>
	</SubRegion>
	<SubRegion>
		<SubName>Howard</SubName>
		<Population>304580</Population>
		<Income>107821</Income>
		<Latitude>39.252264</Latitude>
		<Longitude>-76.924406</Longitude>
	</SubRegion>
	<SubRegion>
		<SubName>Kent</SubName>
		<Population>19944</Population>
		<Income>54614</Income>
		<Latitude>39.241279</Latitude>
		<Longitude>-76.125987</Longitude>
	</SubRegion>
	<SubRegion>
		<SubName>Montgomery</SubName>
		<Population>1016677</Population>
		<Income>96985</Income>
		<Latitude>39.137381</Latitude>
		<Longitude>-77.203063</Longitude>
	</SubRegion>
	<SubRegion>
		<SubName>PrinceGeorge's</SubName>
		<Population>890081</Population>
		<Income>73568</Income>
		<Latitude>38.82588</Latitude>
		<Longitude>-76.847272</Longitude>
	</SubRegion>
	<SubRegion>
		<SubName>QueenAnne's</SubName>
		<Population>48517</Population>
		<Income>86013</Income>
		<Latitude>39.040693</Latitude>
		<Longitude>-76.082405</Longitude>
	</SubRegion>
	<SubRegion>
		<SubName>St.Mary's</SubName>
		<Population>109633</Population>
		<Income>85032</Income>
		<Latitude>38.220289</Latitude>
		<Longitude>-76.530384</Longitude>
	</SubRegion>
	<SubRegion>
		<SubName>Somerset</SubName>
		<Population>26273</Population>
		<Income>41558</Income>
		<Latitude>38.07445</Latitude>
		<Longitude>-75.853323</Longitude>
	</SubRegion>
	<SubRegion>
		<SubName>Talbot</SubName>
		<Population>37931</Population>
		<Income>62942</Income>
		<Latitude>38.748352</Latitude>
		<Longitude>-76.17848</Longitude>
	</SubRegion>
	<SubRegion>
		<SubName>Washington</SubName>
		<Population>149588</Population>
		<Income>54561</Income>
		<Latitude>39.603621</Latitude>
		<Longitude>-77.814671</Longitude>
	</SubRegion>
	<SubRegion>
		<SubName>Wicomico</SubName>
		<Population>100896</Population>
		<Income>50639</Income>
		<Latitude>38.36716</Latitude>
		<Longitude>-75.632027</Longitude>
	</SubRegion>
	<SubRegion>
		<SubName>Worcester</SubName>
		<Population>51620</Population>
		<Income>58138</Income>
		<Latitude>38.222133</Latitude>
		<Longitude>-75.309931</Longitude>
	</SubRegion>
    <SubRegion>
        <SubName>BaltimoreCity</SubName>
        <Population>621342</Population>
        <Income>38772</Income>
        <Latitude>39.2833</Latitude>
        <Longitude>-76.6167</Longitude>
    </SubRegion>
</Region>