<?xml version="1.0" encoding="UTF-8"?><!--
  ~ Copyright (c) Erik Malmstrom-Partridge 2014. Do not distribute, edit, or modify in anyway, without direct written consent of Erik Malmstrom-Partridge.
  -->

<Region>
	<Name>Michigan</Name>
	<SubRegion>
		<SubName>Alcona</SubName>
		<Population>10578</Population>
		<Income>36931</Income>
		<Latitude>44.682535</Latitude>
		<Longitude>-82.83408</Longitude>
	</SubRegion>
	<SubRegion>
		<SubName>Alger</SubName>
		<Population>9522</Population>
		<Income>38348</Income>
		<Latitude>47.080077</Latitude>
		<Longitude>-86.564108</Longitude>
	</SubRegion>
	<SubRegion>
		<SubName>Allegan</SubName>
		<Population>112531</Population>
		<Income>51030</Income>
		<Latitude>42.595787</Latitude>
		<Longitude>-86.634745</Longitude>
	</SubRegion>
	<SubRegion>
		<SubName>Alpena</SubName>
		<Population>29091</Population>
		<Income>38900</Income>
		<Latitude>44.894954</Latitude>
		<Longitude>-83.426574</Longitude>
	</SubRegion>
	<SubRegion>
		<SubName>Antrim</SubName>
		<Population>23370</Population>
		<Income>43171</Income>
		<Latitude>45.005455</Latitude>
		<Longitude>-85.175639</Longitude>
	</SubRegion>
	<SubRegion>
		<SubName>Arenac</SubName>
		<Population>15487</Population>
		<Income>36937</Income>
		<Latitude>44.036833</Latitude>
		<Longitude>-83.740675</Longitude>
	</SubRegion>
	<SubRegion>
		<SubName>Baraga</SubName>
		<Population>8695</Population>
		<Income>39594</Income>
		<Latitude>46.695859</Latitude>
		<Longitude>-88.36181</Longitude>
	</SubRegion>
	<SubRegion>
		<SubName>Barry</SubName>
		<Population>59097</Population>
		<Income>53541</Income>
		<Latitude>42.582811</Latitude>
		<Longitude>-85.31455</Longitude>
	</SubRegion>
	<SubRegion>
		<SubName>Bay</SubName>
		<Population>106832</Population>
		<Income>46068</Income>
		<Latitude>43.699711</Latitude>
		<Longitude>-83.978701</Longitude>
	</SubRegion>
	<SubRegion>
		<SubName>Benzie</SubName>
		<Population>17428</Population>
		<Income>47491</Income>
		<Latitude>44.648621</Latitude>
		<Longitude>-86.494317</Longitude>
	</SubRegion>
	<SubRegion>
		<SubName>Berrien</SubName>
		<Population>155252</Population>
		<Income>43471</Income>
		<Latitude>41.792639</Latitude>
		<Longitude>-86.741822</Longitude>
	</SubRegion>
	<SubRegion>
		<SubName>Branch</SubName>
		<Population>43649</Population>
		<Income>42995</Income>
		<Latitude>41.918455</Latitude>
		<Longitude>-85.066885</Longitude>
	</SubRegion>
	<SubRegion>
		<SubName>Calhoun</SubName>
		<Population>135012</Population>
		<Income>42164</Income>
		<Latitude>42.24299</Latitude>
		<Longitude>-85.012385</Longitude>
	</SubRegion>
	<SubRegion>
		<SubName>Cass</SubName>
		<Population>51910</Population>
		<Income>45462</Income>
		<Latitude>41.916966</Latitude>
		<Longitude>-86.000257</Longitude>
	</SubRegion>
	<SubRegion>
		<SubName>Charlevoix</SubName>
		<Population>26129</Population>
		<Income>47177</Income>
		<Latitude>45.513164</Latitude>
		<Longitude>-85.450392</Longitude>
	</SubRegion>
	<SubRegion>
		<SubName>Cheboygan</SubName>
		<Population>25726</Population>
		<Income>38166</Income>
		<Latitude>45.47612</Latitude>
		<Longitude>-84.495271</Longitude>
	</SubRegion>
	<SubRegion>
		<SubName>Chippewa</SubName>
		<Population>38696</Population>
		<Income>41114</Income>
		<Latitude>46.321819</Latitude>
		<Longitude>-84.52063</Longitude>
	</SubRegion>
	<SubRegion>
		<SubName>Clare</SubName>
		<Population>30569</Population>
		<Income>33334</Income>
		<Latitude>43.991137</Latitude>
		<Longitude>-84.838325</Longitude>
	</SubRegion>
	<SubRegion>
		<SubName>Clinton</SubName>
		<Population>76739</Population>
		<Income>58231</Income>
		<Latitude>42.950455</Latitude>
		<Longitude>-84.591695</Longitude>
	</SubRegion>
	<SubRegion>
		<SubName>Crawford</SubName>
		<Population>13904</Population>
		<Income>39982</Income>
		<Latitude>44.680208</Latitude>
		<Longitude>-84.611132</Longitude>
	</SubRegion>
	<SubRegion>
		<SubName>Delta</SubName>
		<Population>36905</Population>
		<Income>42504</Income>
		<Latitude>45.805229</Latitude>
		<Longitude>-86.901938</Longitude>
	</SubRegion>
	<SubRegion>
		<SubName>Dickinson</SubName>
		<Population>26098</Population>
		<Income>44272</Income>
		<Latitude>46.012823</Latitude>
		<Longitude>-87.866119</Longitude>
	</SubRegion>
	<SubRegion>
		<SubName>Eaton</SubName>
		<Population>108348</Population>
		<Income>55301</Income>
		<Latitude>42.589614</Latitude>
		<Longitude>-84.846524</Longitude>
	</SubRegion>
	<SubRegion>
		<SubName>Emmet</SubName>
		<Population>33140</Population>
		<Income>50686</Income>
		<Latitude>45.590094</Latitude>
		<Longitude>-84.986822</Longitude>
	</SubRegion>
	<SubRegion>
		<SubName>Genesee</SubName>
		<Population>415376</Population>
		<Income>42730</Income>
		<Latitude>43.021077</Latitude>
		<Longitude>-83.706372</Longitude>
	</SubRegion>
	<SubRegion>
		<SubName>Gladwin</SubName>
		<Population>25493</Population>
		<Income>38571</Income>
		<Latitude>43.98975</Latitude>
		<Longitude>-84.389816</Longitude>
	</SubRegion>
	<SubRegion>
		<SubName>Gogebic</SubName>
		<Population>15916</Population>
		<Income>34397</Income>
		<Latitude>46.488054</Latitude>
		<Longitude>-89.788314</Longitude>
	</SubRegion>
	<SubRegion>
		<SubName>GrandTraverse</SubName>
		<Population>89987</Population>
		<Income>51641</Income>
		<Latitude>0.0</Latitude>
		<Longitude>0.0</Longitude>
	</SubRegion>
	<SubRegion>
		<SubName>Gratiot</SubName>
		<Population>41968</Population>
		<Income>40224</Income>
		<Latitude>43.292326</Latitude>
		<Longitude>-84.60469</Longitude>
	</SubRegion>
	<SubRegion>
		<SubName>Hillsdale</SubName>
		<Population>46101</Population>
		<Income>42668</Income>
		<Latitude>41.864475</Latitude>
		<Longitude>-84.642409</Longitude>
	</SubRegion>
	<SubRegion>
		<SubName>Houghton</SubName>
		<Population>36225</Population>
		<Income>34453</Income>
		<Latitude>46.998431</Latitude>
		<Longitude>-88.651908</Longitude>
	</SubRegion>
	<SubRegion>
		<SubName>Huron</SubName>
		<Population>32224</Population>
		<Income>40349</Income>
		<Latitude>43.907616</Latitude>
		<Longitude>-82.857045</Longitude>
	</SubRegion>
	<SubRegion>
		<SubName>Ingham</SubName>
		<Population>282234</Population>
		<Income>45567</Income>
		<Latitude>42.603534</Latitude>
		<Longitude>-84.373811</Longitude>
	</SubRegion>
	<SubRegion>
		<SubName>Ionia</SubName>
		<Population>64073</Population>
		<Income>47580</Income>
		<Latitude>42.94465</Latitude>
		<Longitude>-85.073766</Longitude>
	</SubRegion>
	<SubRegion>
		<SubName>Iosco</SubName>
		<Population>25429</Population>
		<Income>35396</Income>
		<Latitude>44.329482</Latitude>
		<Longitude>-82.849447</Longitude>
	</SubRegion>
	<SubRegion>
		<SubName>Iron</SubName>
		<Population>11516</Population>
		<Income>35551</Income>
		<Latitude>46.170254</Latitude>
		<Longitude>-88.540526</Longitude>
	</SubRegion>
	<SubRegion>
		<SubName>Isabella</SubName>
		<Population>70436</Population>
		<Income>35927</Income>
		<Latitude>43.645233</Latitude>
		<Longitude>-84.839424</Longitude>
	</SubRegion>
	<SubRegion>
		<SubName>Jackson</SubName>
		<Population>160369</Population>
		<Income>46572</Income>
		<Latitude>42.248474</Latitude>
		<Longitude>-84.420868</Longitude>
	</SubRegion>
	<SubRegion>
		<SubName>Kalamazoo</SubName>
		<Population>256725</Population>
		<Income>46011</Income>
		<Latitude>42.246266</Latitude>
		<Longitude>-85.532854</Longitude>
	</SubRegion>
	<SubRegion>
		<SubName>Kalkaska</SubName>
		<Population>17196</Population>
		<Income>39849</Income>
		<Latitude>44.678881</Latitude>
		<Longitude>-85.088992</Longitude>
	</SubRegion>
	<SubRegion>
		<SubName>Kent</SubName>
		<Population>621700</Population>
		<Income>51030</Income>
		<Latitude>43.032497</Latitude>
		<Longitude>-85.547446</Longitude>
	</SubRegion>
	<SubRegion>
		<SubName>Keweenaw</SubName>
		<Population>2191</Population>
		<Income>42406</Income>
		<Latitude>47.681974</Latitude>
		<Longitude>-88.148797</Longitude>
	</SubRegion>
	<SubRegion>
		<SubName>Lake</SubName>
		<Population>11386</Population>
		<Income>30390</Income>
		<Latitude>43.995187</Latitude>
		<Longitude>-85.8114</Longitude>
	</SubRegion>
	<SubRegion>
		<SubName>Lapeer</SubName>
		<Population>88389</Population>
		<Income>52369</Income>
		<Latitude>43.088633</Latitude>
		<Longitude>-83.224325</Longitude>
	</SubRegion>
	<SubRegion>
		<SubName>Leelanau</SubName>
		<Population>21747</Population>
		<Income>53982</Income>
		<Latitude>45.146182</Latitude>
		<Longitude>-86.051574</Longitude>
	</SubRegion>
	<SubRegion>
		<SubName>Lenawee</SubName>
		<Population>99188</Population>
		<Income>48528</Income>
		<Latitude>41.896109</Latitude>
		<Longitude>-84.07435</Longitude>
	</SubRegion>
	<SubRegion>
		<SubName>Livingston</SubName>
		<Population>184443</Population>
		<Income>72396</Income>
		<Latitude>42.602532</Latitude>
		<Longitude>-83.911718</Longitude>
	</SubRegion>
	<SubRegion>
		<SubName>Luce</SubName>
		<Population>6502</Population>
		<Income>42414</Income>
		<Latitude>46.940602</Latitude>
		<Longitude>-85.582368</Longitude>
	</SubRegion>
	<SubRegion>
		<SubName>Mackinac</SubName>
		<Population>11061</Population>
		<Income>38507</Income>
		<Latitude>46.167868</Latitude>
		<Longitude>-85.303762</Longitude>
	</SubRegion>
	<SubRegion>
		<SubName>Macomb</SubName>
		<Population>854769</Population>
		<Income>53628</Income>
		<Latitude>42.671467</Latitude>
		<Longitude>-82.910869</Longitude>
	</SubRegion>
	<SubRegion>
		<SubName>Manistee</SubName>
		<Population>24450</Population>
		<Income>41228</Income>
		<Latitude>44.350385</Latitude>
		<Longitude>-86.602967</Longitude>
	</SubRegion>
	<SubRegion>
		<SubName>Marquette</SubName>
		<Population>67700</Population>
		<Income>45349</Income>
		<Latitude>46.656629</Latitude>
		<Longitude>-87.583982</Longitude>
	</SubRegion>
	<SubRegion>
		<SubName>Mason</SubName>
		<Population>28605</Population>
		<Income>40957</Income>
		<Latitude>43.996636</Latitude>
		<Longitude>-86.750814</Longitude>
	</SubRegion>
	<SubRegion>
		<SubName>Mecosta</SubName>
		<Population>43108</Population>
		<Income>38332</Income>
		<Latitude>43.635295</Latitude>
		<Longitude>-85.332751</Longitude>
	</SubRegion>
	<SubRegion>
		<SubName>Menominee</SubName>
		<Population>23791</Population>
		<Income>40865</Income>
		<Latitude>45.538237</Latitude>
		<Longitude>-87.492949</Longitude>
	</SubRegion>
	<SubRegion>
		<SubName>Midland</SubName>
		<Population>83919</Population>
		<Income>52947</Income>
		<Latitude>43.648203</Latitude>
		<Longitude>-84.379414</Longitude>
	</SubRegion>
	<SubRegion>
		<SubName>Missaukee</SubName>
		<Population>15051</Population>
		<Income>40406</Income>
		<Latitude>44.325424</Latitude>
		<Longitude>-85.085471</Longitude>
	</SubRegion>
	<SubRegion>
		<SubName>Monroe</SubName>
		<Population>150376</Population>
		<Income>54588</Income>
		<Latitude>41.916097</Latitude>
		<Longitude>-83.487106</Longitude>
	</SubRegion>
	<SubRegion>
		<SubName>Montcalm</SubName>
		<Population>63105</Population>
		<Income>40707</Income>
		<Latitude>43.312782</Latitude>
		<Longitude>-85.149468</Longitude>
	</SubRegion>
	<SubRegion>
		<SubName>Montmorency</SubName>
		<Population>9350</Population>
		<Income>34955</Income>
		<Latitude>45.024134</Latitude>
		<Longitude>-84.130107</Longitude>
	</SubRegion>
	<SubRegion>
		<SubName>Muskegon</SubName>
		<Population>171008</Population>
		<Income>40843</Income>
		<Latitude>43.289258</Latitude>
		<Longitude>-86.751892</Longitude>
	</SubRegion>
	<SubRegion>
		<SubName>Newaygo</SubName>
		<Population>48001</Population>
		<Income>43180</Income>
		<Latitude>43.562709</Latitude>
		<Longitude>-85.791423</Longitude>
	</SubRegion>
	<SubRegion>
		<SubName>Oakland</SubName>
		<Population>1231640</Population>
		<Income>65637</Income>
		<Latitude>42.660452</Latitude>
		<Longitude>-83.38421</Longitude>
	</SubRegion>
	<SubRegion>
		<SubName>Oceana</SubName>
		<Population>26245</Population>
		<Income>39667</Income>
		<Latitude>43.647255</Latitude>
		<Longitude>-86.807575</Longitude>
	</SubRegion>
	<SubRegion>
		<SubName>Ogemaw</SubName>
		<Population>21234</Population>
		<Income>35320</Income>
		<Latitude>44.33328</Latitude>
		<Longitude>-84.128073</Longitude>
	</SubRegion>
	<SubRegion>
		<SubName>Ontonagon</SubName>
		<Population>6322</Population>
		<Income>33769</Income>
		<Latitude>47.216604</Latitude>
		<Longitude>-89.500461</Longitude>
	</SubRegion>
	<SubRegion>
		<SubName>Osceola</SubName>
		<Population>23259</Population>
		<Income>37825</Income>
		<Latitude>43.997552</Latitude>
		<Longitude>-85.322283</Longitude>
	</SubRegion>
	<SubRegion>
		<SubName>Oscoda</SubName>
		<Population>8379</Population>
		<Income>33942</Income>
		<Latitude>44.687257</Latitude>
		<Longitude>-84.126905</Longitude>
	</SubRegion>
	<SubRegion>
		<SubName>Otsego</SubName>
		<Population>24129</Population>
		<Income>47140</Income>
		<Latitude>45.021787</Latitude>
		<Longitude>-84.576603</Longitude>
	</SubRegion>
	<SubRegion>
		<SubName>Ottawa</SubName>
		<Population>272701</Population>
		<Income>55760</Income>
		<Latitude>42.942346</Latitude>
		<Longitude>-86.655342</Longitude>
	</SubRegion>
	<SubRegion>
		<SubName>PresqueIsle</SubName>
		<Population>13062</Population>
		<Income>39109</Income>
		<Latitude>0.0</Latitude>
		<Longitude>0.0</Longitude>
	</SubRegion>
	<SubRegion>
		<SubName>Roscommon</SubName>
		<Population>24014</Population>
		<Income>34765</Income>
		<Latitude>44.339517</Latitude>
		<Longitude>-84.611271</Longitude>
	</SubRegion>
	<SubRegion>
		<SubName>Saginaw</SubName>
		<Population>196542</Population>
		<Income>42828</Income>
		<Latitude>43.328267</Latitude>
		<Longitude>-84.05541</Longitude>
	</SubRegion>
	<SubRegion>
		<SubName>St.Clair</SubName>
		<Population>160469</Population>
		<Income>47877</Income>
		<Latitude>0.0</Latitude>
		<Longitude>0.0</Longitude>
	</SubRegion>
	<SubRegion>
		<SubName>St.Joseph</SubName>
		<Population>60964</Population>
		<Income>44214</Income>
		<Latitude>0.0</Latitude>
		<Longitude>0.0</Longitude>
	</SubRegion>
	<SubRegion>
		<SubName>Sanilac</SubName>
		<Population>41823</Population>
		<Income>40019</Income>
		<Latitude>43.449155</Latitude>
		<Longitude>-82.642815</Longitude>
	</SubRegion>
	<SubRegion>
		<SubName>Schoolcraft</SubName>
		<Population>8247</Population>
		<Income>37468</Income>
		<Latitude>46.021122</Latitude>
		<Longitude>-86.197029</Longitude>
	</SubRegion>
	<SubRegion>
		<SubName>Shiawassee</SubName>
		<Population>68900</Population>
		<Income>47106</Income>
		<Latitude>42.951545</Latitude>
		<Longitude>-84.146352</Longitude>
	</SubRegion>
	<SubRegion>
		<SubName>Tuscola</SubName>
		<Population>54263</Population>
		<Income>43463</Income>
		<Latitude>43.487902</Latitude>
		<Longitude>-83.436618</Longitude>
	</SubRegion>
	<SubRegion>
		<SubName>VanBuren</SubName>
		<Population>75455</Population>
		<Income>44425</Income>
		<Latitude>0.0</Latitude>
		<Longitude>0.0</Longitude>
	</SubRegion>
	<SubRegion>
		<SubName>Washtenaw</SubName>
		<Population>354240</Population>
		<Income>59063</Income>
		<Latitude>42.252327</Latitude>
		<Longitude>-83.844634</Longitude>
	</SubRegion>
	<SubRegion>
		<SubName>Wayne</SubName>
		<Population>1775273</Population>
		<Income>41504</Income>
		<Latitude>42.284664</Latitude>
		<Longitude>-83.261953</Longitude>
	</SubRegion>
	<SubRegion>
		<SubName>Wexford</SubName>
		<Population>32645</Population>
		<Income>40660</Income>
		<Latitude>44.331375</Latitude>
		<Longitude>-85.570046</Longitude>
	</SubRegion>
</Region>