<?xml version="1.0" encoding="UTF-8"?><!--
  ~ Copyright (c) Erik Malmstrom-Partridge 2014. Do not distribute, edit, or modify in anyway, without direct written consent of Erik Malmstrom-Partridge.
  -->

<Region>
	<Name>Wisconsin</Name>
	<SubRegion>
		<SubName>Adams</SubName>
		<Population>20480</Population>
		<Income>42781</Income>
		<Latitude>43.973763</Latitude>
		<Longitude>-89.767223</Longitude>
	</SubRegion>
	<SubRegion>
		<SubName>Ashland</SubName>
		<Population>16016</Population>
		<Income>39157</Income>
		<Latitude>46.544424</Latitude>
		<Longitude>-90.679691</Longitude>
	</SubRegion>
	<SubRegion>
		<SubName>Barron</SubName>
		<Population>45676</Population>
		<Income>44149</Income>
		<Latitude>45.437192</Latitude>
		<Longitude>-91.852892</Longitude>
	</SubRegion>
	<SubRegion>
		<SubName>Bayfield</SubName>
		<Population>15156</Population>
		<Income>44626</Income>
		<Latitude>46.634199</Latitude>
		<Longitude>-91.177282</Longitude>
	</SubRegion>
	<SubRegion>
		<SubName>Brown</SubName>
		<Population>254586</Population>
		<Income>53419</Income>
		<Latitude>44.473961</Latitude>
		<Longitude>-87.995926</Longitude>
	</SubRegion>
	<SubRegion>
		<SubName>Buffalo</SubName>
		<Population>13357</Population>
		<Income>47119</Income>
		<Latitude>44.385642</Latitude>
		<Longitude>-91.761229</Longitude>
	</SubRegion>
	<SubRegion>
		<SubName>Burnett</SubName>
		<Population>15333</Population>
		<Income>39382</Income>
		<Latitude>45.866878</Latitude>
		<Longitude>-92.37574</Longitude>
	</SubRegion>
	<SubRegion>
		<SubName>Calumet</SubName>
		<Population>49617</Population>
		<Income>64982</Income>
		<Latitude>44.07841</Latitude>
		<Longitude>-88.212132</Longitude>
	</SubRegion>
	<SubRegion>
		<SubName>Chippewa</SubName>
		<Population>63132</Population>
		<Income>50327</Income>
		<Latitude>45.069092</Latitude>
		<Longitude>-91.283505</Longitude>
	</SubRegion>
	<SubRegion>
		<SubName>Clark</SubName>
		<Population>34615</Population>
		<Income>43147</Income>
		<Latitude>44.739306</Latitude>
		<Longitude>-90.609945</Longitude>
	</SubRegion>
	<SubRegion>
		<SubName>Columbia</SubName>
		<Population>56653</Population>
		<Income>57869</Income>
		<Latitude>43.471882</Latitude>
		<Longitude>-89.330472</Longitude>
	</SubRegion>
	<SubRegion>
		<SubName>Crawford</SubName>
		<Population>16397</Population>
		<Income>41743</Income>
		<Latitude>43.24991</Latitude>
		<Longitude>-90.95123</Longitude>
	</SubRegion>
	<SubRegion>
		<SubName>Dane</SubName>
		<Population>509939</Population>
		<Income>61790</Income>
		<Latitude>43.067468</Latitude>
		<Longitude>-89.417852</Longitude>
	</SubRegion>
	<SubRegion>
		<SubName>Dodge</SubName>
		<Population>88344</Population>
		<Income>53782</Income>
		<Latitude>43.422706</Latitude>
		<Longitude>-88.704379</Longitude>
	</SubRegion>
	<SubRegion>
		<SubName>Door</SubName>
		<Population>27896</Population>
		<Income>48707</Income>
		<Latitude>45.067811</Latitude>
		<Longitude>-87.087936</Longitude>
	</SubRegion>
	<SubRegion>
		<SubName>Douglas</SubName>
		<Population>43887</Population>
		<Income>45370</Income>
		<Latitude>46.463316</Latitude>
		<Longitude>-91.892579</Longitude>
	</SubRegion>
	<SubRegion>
		<SubName>Dunn</SubName>
		<Population>44122</Population>
		<Income>47847</Income>
		<Latitude>44.947741</Latitude>
		<Longitude>-91.89772</Longitude>
	</SubRegion>
	<SubRegion>
		<SubName>EauClaire</SubName>
		<Population>101438</Population>
		<Income>47821</Income>
		<Latitude>44.726355</Latitude>
		<Longitude>-91.286414</Longitude>
	</SubRegion>
	<SubRegion>
		<SubName>Florence</SubName>
		<Population>4520</Population>
		<Income>44652</Income>
		<Latitude>45.871865</Latitude>
		<Longitude>-88.407234</Longitude>
	</SubRegion>
	<SubRegion>
		<SubName>Fonddu</SubName>
		<Population>101798</Population>
		<Income>53399</Income>
		<Latitude>0.0</Latitude>
		<Longitude>0.0</Longitude>
	</SubRegion>
	<SubRegion>
		<SubName>Forest</SubName>
		<Population>9126</Population>
		<Income>40215</Income>
		<Latitude>45.666882</Latitude>
		<Longitude>-88.773225</Longitude>
	</SubRegion>
	<SubRegion>
		<SubName>Grant</SubName>
		<Population>51069</Population>
		<Income>46138</Income>
		<Latitude>42.870028</Latitude>
		<Longitude>-90.694229</Longitude>
	</SubRegion>
	<SubRegion>
		<SubName>Green</SubName>
		<Population>37090</Population>
		<Income>55380</Income>
		<Latitude>42.675522</Latitude>
		<Longitude>-89.605074</Longitude>
	</SubRegion>
	<SubRegion>
		<SubName>GreenLake</SubName>
		<Population>18959</Population>
		<Income>48772</Income>
		<Latitude>43.76141</Latitude>
		<Longitude>-88.987228</Longitude>
	</SubRegion>
	<SubRegion>
		<SubName>Iowa</SubName>
		<Population>23749</Population>
		<Income>55900</Income>
		<Latitude>43.001021</Latitude>
		<Longitude>-90.133691</Longitude>
	</SubRegion>
	<SubRegion>
		<SubName>Iron</SubName>
		<Population>5886</Population>
		<Income>37112</Income>
		<Latitude>46.32655</Latitude>
		<Longitude>-90.261298</Longitude>
	</SubRegion>
	<SubRegion>
		<SubName>Jackson</SubName>
		<Population>20644</Population>
		<Income>43098</Income>
		<Latitude>44.326757</Latitude>
		<Longitude>-90.796018</Longitude>
	</SubRegion>
	<SubRegion>
		<SubName>Jefferson</SubName>
		<Population>84509</Population>
		<Income>54705</Income>
		<Latitude>43.013807</Latitude>
		<Longitude>-88.773985</Longitude>
	</SubRegion>
	<SubRegion>
		<SubName>Juneau</SubName>
		<Population>26547</Population>
		<Income>45461</Income>
		<Latitude>43.932836</Latitude>
		<Longitude>-90.113984</Longitude>
	</SubRegion>
	<SubRegion>
		<SubName>Kenosha</SubName>
		<Population>167757</Population>
		<Income>55117</Income>
		<Latitude>42.579703</Latitude>
		<Longitude>-87.424898</Longitude>
	</SubRegion>
	<SubRegion>
		<SubName>Kewaunee</SubName>
		<Population>20505</Population>
		<Income>55611</Income>
		<Latitude>44.500949</Latitude>
		<Longitude>-87.161813</Longitude>
	</SubRegion>
	<SubRegion>
		<SubName>LaCrosse</SubName>
		<Population>116713</Population>
		<Income>50771</Income>
		<Latitude>43.908222</Latitude>
		<Longitude>-91.111758</Longitude>
	</SubRegion>
	<SubRegion>
		<SubName>Lafayette</SubName>
		<Population>16766</Population>
		<Income>49263</Income>
		<Latitude>42.655578</Latitude>
		<Longitude>-90.130292</Longitude>
	</SubRegion>
	<SubRegion>
		<SubName>Langlade</SubName>
		<Population>19575</Population>
		<Income>42958</Income>
		<Latitude>45.26217</Latitude>
		<Longitude>-89.067549</Longitude>
	</SubRegion>
	<SubRegion>
		<SubName>Lincoln</SubName>
		<Population>28684</Population>
		<Income>48293</Income>
		<Latitude>45.338417</Latitude>
		<Longitude>-89.742309</Longitude>
	</SubRegion>
	<SubRegion>
		<SubName>Manitowoc</SubName>
		<Population>80654</Population>
		<Income>50091</Income>
		<Latitude>44.105108</Latitude>
		<Longitude>-87.313828</Longitude>
	</SubRegion>
	<SubRegion>
		<SubName>Marathon</SubName>
		<Population>135416</Population>
		<Income>53762</Income>
		<Latitude>44.898036</Latitude>
		<Longitude>-89.757823</Longitude>
	</SubRegion>
	<SubRegion>
		<SubName>Marinette</SubName>
		<Population>41610</Population>
		<Income>41533</Income>
		<Latitude>45.346899</Latitude>
		<Longitude>-87.991198</Longitude>
	</SubRegion>
	<SubRegion>
		<SubName>Marquette</SubName>
		<Population>15176</Population>
		<Income>44879</Income>
		<Latitude>43.826053</Latitude>
		<Longitude>-89.409095</Longitude>
	</SubRegion>
	<SubRegion>
		<SubName>Milwaukee</SubName>
		<Population>956023</Population>
		<Income>43599</Income>
		<Latitude>43.017652</Latitude>
		<Longitude>-87.481549</Longitude>
	</SubRegion>
	<SubRegion>
		<SubName>Monroe</SubName>
		<Population>45298</Population>
		<Income>48768</Income>
		<Latitude>43.945175</Latitude>
		<Longitude>-90.619969</Longitude>
	</SubRegion>
	<SubRegion>
		<SubName>Oconto</SubName>
		<Population>37318</Population>
		<Income>50763</Income>
		<Latitude>44.996575</Latitude>
		<Longitude>-88.206516</Longitude>
	</SubRegion>
	<SubRegion>
		<SubName>Oneida</SubName>
		<Population>35689</Population>
		<Income>44181</Income>
		<Latitude>45.716198</Latitude>
		<Longitude>-89.534988</Longitude>
	</SubRegion>
	<SubRegion>
		<SubName>Outagamie</SubName>
		<Population>180345</Population>
		<Income>57584</Income>
		<Latitude>44.418226</Latitude>
		<Longitude>-88.464988</Longitude>
	</SubRegion>
	<SubRegion>
		<SubName>Ozaukee</SubName>
		<Population>87054</Population>
		<Income>75854</Income>
		<Latitude>43.360715</Latitude>
		<Longitude>-87.496553</Longitude>
	</SubRegion>
	<SubRegion>
		<SubName>Pepin</SubName>
		<Population>7360</Population>
		<Income>49544</Income>
		<Latitude>44.627436</Latitude>
		<Longitude>-91.83489</Longitude>
	</SubRegion>
	<SubRegion>
		<SubName>Pierce</SubName>
		<Population>40976</Population>
		<Income>61153</Income>
		<Latitude>44.725336</Latitude>
		<Longitude>-92.426279</Longitude>
	</SubRegion>
	<SubRegion>
		<SubName>Polk</SubName>
		<Population>43476</Population>
		<Income>49595</Income>
		<Latitude>45.468654</Latitude>
		<Longitude>-92.453736</Longitude>
	</SubRegion>
	<SubRegion>
		<SubName>Portage</SubName>
		<Population>70380</Population>
		<Income>51422</Income>
		<Latitude>44.476246</Latitude>
		<Longitude>-89.49807</Longitude>
	</SubRegion>
	<SubRegion>
		<SubName>Price</SubName>
		<Population>13802</Population>
		<Income>42206</Income>
		<Latitude>45.679072</Latitude>
		<Longitude>-90.35965</Longitude>
	</SubRegion>
	<SubRegion>
		<SubName>Racine</SubName>
		<Population>195041</Population>
		<Income>54900</Income>
		<Latitude>42.754075</Latitude>
		<Longitude>-87.414676</Longitude>
	</SubRegion>
	<SubRegion>
		<SubName>Richland</SubName>
		<Population>17717</Population>
		<Income>44821</Income>
		<Latitude>43.376199</Latitude>
		<Longitude>-90.435693</Longitude>
	</SubRegion>
	<SubRegion>
		<SubName>Rock</SubName>
		<Population>160739</Population>
		<Income>50316</Income>
		<Latitude>42.669878</Latitude>
		<Longitude>-89.075281</Longitude>
	</SubRegion>
	<SubRegion>
		<SubName>Rusk</SubName>
		<Population>14395</Population>
		<Income>38629</Income>
		<Latitude>45.472734</Latitude>
		<Longitude>-91.136745</Longitude>
	</SubRegion>
	<SubRegion>
		<SubName>St.Croix</SubName>
		<Population>85930</Population>
		<Income>68139</Income>
		<Latitude>45.028959</Latitude>
		<Longitude>-92.447284</Longitude>
	</SubRegion>
	<SubRegion>
		<SubName>Sauk</SubName>
		<Population>63162</Population>
		<Income>52355</Income>
		<Latitude>43.427998</Latitude>
		<Longitude>-89.943329</Longitude>
	</SubRegion>
	<SubRegion>
		<SubName>Sawyer</SubName>
		<Population>16513</Population>
		<Income>39814</Income>
		<Latitude>45.864913</Latitude>
		<Longitude>-91.14713</Longitude>
	</SubRegion>
	<SubRegion>
		<SubName>Shawano</SubName>
		<Population>41643</Population>
		<Income>45901</Income>
		<Latitude>44.789641</Latitude>
		<Longitude>-88.755813</Longitude>
	</SubRegion>
	<SubRegion>
		<SubName>Sheboygan</SubName>
		<Population>114922</Population>
		<Income>52967</Income>
		<Latitude>43.746002</Latitude>
		<Longitude>-87.730546</Longitude>
	</SubRegion>
	<SubRegion>
		<SubName>Taylor</SubName>
		<Population>20610</Population>
		<Income>44578</Income>
		<Latitude>45.211656</Latitude>
		<Longitude>-90.504853</Longitude>
	</SubRegion>
	<SubRegion>
		<SubName>Trempealeau</SubName>
		<Population>29582</Population>
		<Income>48624</Income>
		<Latitude>44.30305</Latitude>
		<Longitude>-91.358867</Longitude>
	</SubRegion>
	<SubRegion>
		<SubName>Vernon</SubName>
		<Population>30329</Population>
		<Income>44676</Income>
		<Latitude>43.599366</Latitude>
		<Longitude>-90.821983</Longitude>
	</SubRegion>
	<SubRegion>
		<SubName>Vilas</SubName>
		<Population>21368</Population>
		<Income>40743</Income>
		<Latitude>46.049848</Latitude>
		<Longitude>-89.501254</Longitude>
	</SubRegion>
	<SubRegion>
		<SubName>Walworth</SubName>
		<Population>102945</Population>
		<Income>54443</Income>
		<Latitude>42.66811</Latitude>
		<Longitude>-88.541731</Longitude>
	</SubRegion>
	<SubRegion>
		<SubName>Washburn</SubName>
		<Population>15686</Population>
		<Income>40892</Income>
		<Latitude>45.892463</Latitude>
		<Longitude>-91.796423</Longitude>
	</SubRegion>
	<SubRegion>
		<SubName>Washington</SubName>
		<Population>132739</Population>
		<Income>66485</Income>
		<Latitude>43.391156</Latitude>
		<Longitude>-88.232917</Longitude>
	</SubRegion>
	<SubRegion>
		<SubName>Waukesha</SubName>
		<Population>393843</Population>
		<Income>75689</Income>
		<Latitude>43.019308</Latitude>
		<Longitude>-88.306707</Longitude>
	</SubRegion>
	<SubRegion>
		<SubName>Waupaca</SubName>
		<Population>52285</Population>
		<Income>49777</Income>
		<Latitude>44.478004</Latitude>
		<Longitude>-88.967005</Longitude>
	</SubRegion>
	<SubRegion>
		<SubName>Waushara</SubName>
		<Population>24329</Population>
		<Income>43582</Income>
		<Latitude>44.112825</Latitude>
		<Longitude>-89.239752</Longitude>
	</SubRegion>
	<SubRegion>
		<SubName>Winnebago</SubName>
		<Population>169541</Population>
		<Income>51603</Income>
		<Latitude>44.085707</Latitude>
		<Longitude>-88.668149</Longitude>
	</SubRegion>
	<SubRegion>
		<SubName>Wood</SubName>
		<Population>73959</Population>
		<Income>46999</Income>
		<Latitude>44.461413</Latitude>
		<Longitude>-90.038825</Longitude>
	</SubRegion>
</Region>