<?xml version="1.0" encoding="UTF-8"?><!--
  ~ Copyright (c) Erik Malmstrom-Partridge 2014. Do not distribute, edit, or modify in anyway, without direct written consent of Erik Malmstrom-Partridge.
  -->

<Region>
	<Name>NorthDakota</Name>
	<SubRegion>
		<SubName>Adams</SubName>
		<Population>2360</Population>
		<Income>42830</Income>
		<Latitude>46.096815</Latitude>
		<Longitude>-102.533198</Longitude>
	</SubRegion>
	<SubRegion>
		<SubName>Barnes</SubName>
		<Population>11190</Population>
		<Income>48317</Income>
		<Latitude>46.94255</Latitude>
		<Longitude>-98.070195</Longitude>
	</SubRegion>
	<SubRegion>
		<SubName>Benson</SubName>
		<Population>6877</Population>
		<Income>34706</Income>
		<Latitude>48.071743</Latitude>
		<Longitude>-99.351152</Longitude>
	</SubRegion>
	<SubRegion>
		<SubName>Billings</SubName>
		<Population>874</Population>
		<Income>48375</Income>
		<Latitude>47.007044</Latitude>
		<Longitude>-103.364016</Longitude>
	</SubRegion>
	<SubRegion>
		<SubName>Bottineau</SubName>
		<Population>6736</Population>
		<Income>48289</Income>
		<Latitude>48.794412</Latitude>
		<Longitude>-100.831257</Longitude>
	</SubRegion>
	<SubRegion>
		<SubName>Bowman</SubName>
		<Population>3214</Population>
		<Income>52821</Income>
		<Latitude>46.110144</Latitude>
		<Longitude>-103.505943</Longitude>
	</SubRegion>
	<SubRegion>
		<SubName>Burke</SubName>
		<Population>2306</Population>
		<Income>52031</Income>
		<Latitude>48.786453</Latitude>
		<Longitude>-102.520087</Longitude>
	</SubRegion>
	<SubRegion>
		<SubName>Burleigh</SubName>
		<Population>88457</Population>
		<Income>59309</Income>
		<Latitude>46.971843</Latitude>
		<Longitude>-100.462001</Longitude>
	</SubRegion>
	<SubRegion>
		<SubName>Cass</SubName>
		<Population>162829</Population>
		<Income>51110</Income>
		<Latitude>46.927003</Latitude>
		<Longitude>-97.252375</Longitude>
	</SubRegion>
	<SubRegion>
		<SubName>Cavalier</SubName>
		<Population>3896</Population>
		<Income>54080</Income>
		<Latitude>48.768439</Latitude>
		<Longitude>-98.46379</Longitude>
	</SubRegion>
	<SubRegion>
		<SubName>Dickey</SubName>
		<Population>5248</Population>
		<Income>41934</Income>
		<Latitude>46.107756</Latitude>
		<Longitude>-98.496518</Longitude>
	</SubRegion>
	<SubRegion>
		<SubName>Divide</SubName>
		<Population>2314</Population>
		<Income>51208</Income>
		<Latitude>48.814754</Latitude>
		<Longitude>-103.509326</Longitude>
	</SubRegion>
	<SubRegion>
		<SubName>Dunn</SubName>
		<Population>4162</Population>
		<Income>54539</Income>
		<Latitude>47.354548</Latitude>
		<Longitude>-102.612366</Longitude>
	</SubRegion>
	<SubRegion>
		<SubName>Eddy</SubName>
		<Population>2404</Population>
		<Income>40000</Income>
		<Latitude>47.723436</Latitude>
		<Longitude>-98.900474</Longitude>
	</SubRegion>
	<SubRegion>
		<SubName>Emmons</SubName>
		<Population>3486</Population>
		<Income>37304</Income>
		<Latitude>46.284255</Latitude>
		<Longitude>-100.237842</Longitude>
	</SubRegion>
	<SubRegion>
		<SubName>Foster</SubName>
		<Population>3366</Population>
		<Income>49516</Income>
		<Latitude>47.471431</Latitude>
		<Longitude>-98.872876</Longitude>
	</SubRegion>
	<SubRegion>
		<SubName>GoldenValley</SubName>
		<Population>1823</Population>
		<Income>35742</Income>
		<Latitude>0.0</Latitude>
		<Longitude>0.0</Longitude>
	</SubRegion>
	<SubRegion>
		<SubName>GrandForks</SubName>
		<Population>69179</Population>
		<Income>46392</Income>
		<Latitude>0.0</Latitude>
		<Longitude>0.0</Longitude>
	</SubRegion>
	<SubRegion>
		<SubName>Grant</SubName>
		<Population>2377</Population>
		<Income>40968</Income>
		<Latitude>46.357827</Latitude>
		<Longitude>-101.639049</Longitude>
	</SubRegion>
	<SubRegion>
		<SubName>Griggs</SubName>
		<Population>2296</Population>
		<Income>44792</Income>
		<Latitude>47.456334</Latitude>
		<Longitude>-98.232286</Longitude>
	</SubRegion>
	<SubRegion>
		<SubName>Hettinger</SubName>
		<Population>2660</Population>
		<Income>45000</Income>
		<Latitude>46.435704</Latitude>
		<Longitude>-102.454238</Longitude>
	</SubRegion>
	<SubRegion>
		<SubName>Kidder</SubName>
		<Population>2428</Population>
		<Income>45478</Income>
		<Latitude>46.938273</Latitude>
		<Longitude>-99.731198</Longitude>
	</SubRegion>
	<SubRegion>
		<SubName>LaMoure</SubName>
		<Population>4166</Population>
		<Income>52813</Income>
		<Latitude>46.464195</Latitude>
		<Longitude>-98.526057</Longitude>
	</SubRegion>
	<SubRegion>
		<SubName>Logan</SubName>
		<Population>1946</Population>
		<Income>47857</Income>
		<Latitude>46.469278</Latitude>
		<Longitude>-99.504585</Longitude>
	</SubRegion>
	<SubRegion>
		<SubName>McHenry</SubName>
		<Population>5922</Population>
		<Income>41763</Income>
		<Latitude>48.233842</Latitude>
		<Longitude>-100.633267</Longitude>
	</SubRegion>
	<SubRegion>
		<SubName>McIntosh</SubName>
		<Population>2754</Population>
		<Income>36327</Income>
		<Latitude>46.117034</Latitude>
		<Longitude>-99.443041</Longitude>
	</SubRegion>
	<SubRegion>
		<SubName>McKenzie</SubName>
		<Population>9314</Population>
		<Income>61893</Income>
		<Latitude>47.742475</Latitude>
		<Longitude>-103.403215</Longitude>
	</SubRegion>
	<SubRegion>
		<SubName>McLean</SubName>
		<Population>9517</Population>
		<Income>54539</Income>
		<Latitude>47.653055</Latitude>
		<Longitude>-101.421794</Longitude>
	</SubRegion>
	<SubRegion>
		<SubName>Mercer</SubName>
		<Population>8592</Population>
		<Income>63244</Income>
		<Latitude>47.307147</Latitude>
		<Longitude>-101.833328</Longitude>
	</SubRegion>
	<SubRegion>
		<SubName>Morton</SubName>
		<Population>28990</Population>
		<Income>57988</Income>
		<Latitude>46.710819</Latitude>
		<Longitude>-101.298265</Longitude>
	</SubRegion>
	<SubRegion>
		<SubName>Mountrail</SubName>
		<Population>9376</Population>
		<Income>65822</Income>
		<Latitude>48.210291</Latitude>
		<Longitude>-102.364756</Longitude>
	</SubRegion>
	<SubRegion>
		<SubName>Nelson</SubName>
		<Population>3095</Population>
		<Income>43622</Income>
		<Latitude>47.918667</Latitude>
		<Longitude>-98.204428</Longitude>
	</SubRegion>
	<SubRegion>
		<SubName>Oliver</SubName>
		<Population>1874</Population>
		<Income>62768</Income>
		<Latitude>47.118079</Latitude>
		<Longitude>-101.33142</Longitude>
	</SubRegion>
	<SubRegion>
		<SubName>Pembina</SubName>
		<Population>7181</Population>
		<Income>50422</Income>
		<Latitude>48.766896</Latitude>
		<Longitude>-97.545405</Longitude>
	</SubRegion>
	<SubRegion>
		<SubName>Pierce</SubName>
		<Population>4451</Population>
		<Income>45851</Income>
		<Latitude>48.238883</Latitude>
		<Longitude>-99.966497</Longitude>
	</SubRegion>
	<SubRegion>
		<SubName>Ramsey</SubName>
		<Population>11554</Population>
		<Income>46119</Income>
		<Latitude>48.266163</Latitude>
		<Longitude>-98.739031</Longitude>
	</SubRegion>
	<SubRegion>
		<SubName>Ransom</SubName>
		<Population>5516</Population>
		<Income>47866</Income>
		<Latitude>46.449276</Latitude>
		<Longitude>-97.647554</Longitude>
	</SubRegion>
	<SubRegion>
		<SubName>Renville</SubName>
		<Population>2608</Population>
		<Income>57361</Income>
		<Latitude>48.712781</Latitude>
		<Longitude>-101.658152</Longitude>
	</SubRegion>
	<SubRegion>
		<SubName>Richland</SubName>
		<Population>16339</Population>
		<Income>51272</Income>
		<Latitude>46.265219</Latitude>
		<Longitude>-96.93796</Longitude>
	</SubRegion>
	<SubRegion>
		<SubName>Rolette</SubName>
		<Population>14582</Population>
		<Income>30641</Income>
		<Latitude>48.768271</Latitude>
		<Longitude>-99.840463</Longitude>
	</SubRegion>
	<SubRegion>
		<SubName>Sargent</SubName>
		<Population>3890</Population>
		<Income>51175</Income>
		<Latitude>46.108206</Latitude>
		<Longitude>-97.63003</Longitude>
	</SubRegion>
	<SubRegion>
		<SubName>Sheridan</SubName>
		<Population>1304</Population>
		<Income>39811</Income>
		<Latitude>47.581359</Latitude>
		<Longitude>-100.330986</Longitude>
	</SubRegion>
	<SubRegion>
		<SubName>Sioux</SubName>
		<Population>4430</Population>
		<Income>30799</Income>
		<Latitude>46.110618</Latitude>
		<Longitude>-101.061284</Longitude>
	</SubRegion>
	<SubRegion>
		<SubName>Slope</SubName>
		<Population>761</Population>
		<Income>55313</Income>
		<Latitude>46.445834</Latitude>
		<Longitude>-103.462462</Longitude>
	</SubRegion>
	<SubRegion>
		<SubName>Stark</SubName>
		<Population>28212</Population>
		<Income>58793</Income>
		<Latitude>46.817031</Latitude>
		<Longitude>-102.662026</Longitude>
	</SubRegion>
	<SubRegion>
		<SubName>Steele</SubName>
		<Population>1960</Population>
		<Income>50536</Income>
		<Latitude>47.451062</Latitude>
		<Longitude>-97.71892</Longitude>
	</SubRegion>
	<SubRegion>
		<SubName>Stutsman</SubName>
		<Population>21120</Population>
		<Income>48678</Income>
		<Latitude>46.972223</Latitude>
		<Longitude>-98.956123</Longitude>
	</SubRegion>
	<SubRegion>
		<SubName>Towner</SubName>
		<Population>2317</Population>
		<Income>53594</Income>
		<Latitude>48.682183</Latitude>
		<Longitude>-99.248158</Longitude>
	</SubRegion>
	<SubRegion>
		<SubName>Traill</SubName>
		<Population>8245</Population>
		<Income>46398</Income>
		<Latitude>47.446215</Latitude>
		<Longitude>-97.164754</Longitude>
	</SubRegion>
	<SubRegion>
		<SubName>Walsh</SubName>
		<Population>11104</Population>
		<Income>48044</Income>
		<Latitude>48.376979</Latitude>
		<Longitude>-97.72223</Longitude>
	</SubRegion>
	<SubRegion>
		<SubName>Ward</SubName>
		<Population>67990</Population>
		<Income>53361</Income>
		<Latitude>48.216686</Latitude>
		<Longitude>-101.540537</Longitude>
	</SubRegion>
	<SubRegion>
		<SubName>Wells</SubName>
		<Population>4206</Population>
		<Income>41982</Income>
		<Latitude>47.580881</Latitude>
		<Longitude>-99.682254</Longitude>
	</SubRegion>
	<SubRegion>
		<SubName>Williams</SubName>
		<Population>29595</Population>
		<Income>69617</Income>
		<Latitude>48.355765</Latitude>
		<Longitude>-103.501333</Longitude>
	</SubRegion>
</Region>