<?xml version="1.0" encoding="UTF-8"?><!--
  ~ Copyright (c) Erik Malmstrom-Partridge 2014. Do not distribute, edit, or modify in anyway, without direct written consent of Erik Malmstrom-Partridge.
  -->

<Region>
	<Name>Tennessee</Name>
	<SubRegion>
		<SubName>Anderson</SubName>
		<Population>75542</Population>
		<Income>44154</Income>
		<Latitude>36.116731</Latitude>
		<Longitude>-84.195418</Longitude>
	</SubRegion>
	<SubRegion>
		<SubName>Bedford</SubName>
		<Population>45901</Population>
		<Income>39635</Income>
		<Latitude>35.51366</Latitude>
		<Longitude>-86.458294</Longitude>
	</SubRegion>
	<SubRegion>
		<SubName>Benton</SubName>
		<Population>16290</Population>
		<Income>33663</Income>
		<Latitude>36.069253</Latitude>
		<Longitude>-88.071212</Longitude>
	</SubRegion>
	<SubRegion>
		<SubName>Bledsoe</SubName>
		<Population>12841</Population>
		<Income>31388</Income>
		<Latitude>35.593668</Latitude>
		<Longitude>-85.205979</Longitude>
	</SubRegion>
	<SubRegion>
		<SubName>Blount</SubName>
		<Population>125099</Population>
		<Income>46347</Income>
		<Latitude>35.688185</Latitude>
		<Longitude>-83.922973</Longitude>
	</SubRegion>
	<SubRegion>
		<SubName>Bradley</SubName>
		<Population>101848</Population>
		<Income>40614</Income>
		<Latitude>35.153914</Latitude>
		<Longitude>-84.859414</Longitude>
	</SubRegion>
	<SubRegion>
		<SubName>Campbell</SubName>
		<Population>40238</Population>
		<Income>31312</Income>
		<Latitude>36.401592</Latitude>
		<Longitude>-84.159249</Longitude>
	</SubRegion>
	<SubRegion>
		<SubName>Cannon</SubName>
		<Population>13775</Population>
		<Income>40998</Income>
		<Latitude>35.808394</Latitude>
		<Longitude>-86.062404</Longitude>
	</SubRegion>
	<SubRegion>
		<SubName>Carroll</SubName>
		<Population>28513</Population>
		<Income>35595</Income>
		<Latitude>35.965918</Latitude>
		<Longitude>-88.452298</Longitude>
	</SubRegion>
	<SubRegion>
		<SubName>Carter</SubName>
		<Population>57338</Population>
		<Income>32908</Income>
		<Latitude>36.284744</Latitude>
		<Longitude>-82.126593</Longitude>
	</SubRegion>
	<SubRegion>
		<SubName>Cheatham</SubName>
		<Population>39492</Population>
		<Income>53363</Income>
		<Latitude>36.255169</Latitude>
		<Longitude>-87.100808</Longitude>
	</SubRegion>
	<SubRegion>
		<SubName>Chester</SubName>
		<Population>17321</Population>
		<Income>42097</Income>
		<Latitude>35.420253</Latitude>
		<Longitude>-88.611353</Longitude>
	</SubRegion>
	<SubRegion>
		<SubName>Claiborne</SubName>
		<Population>31560</Population>
		<Income>33568</Income>
		<Latitude>36.501542</Latitude>
		<Longitude>-83.660722</Longitude>
	</SubRegion>
	<SubRegion>
		<SubName>Clay</SubName>
		<Population>7774</Population>
		<Income>30184</Income>
		<Latitude>36.545788</Latitude>
		<Longitude>-85.545816</Longitude>
	</SubRegion>
	<SubRegion>
		<SubName>Cocke</SubName>
		<Population>35479</Population>
		<Income>29764</Income>
		<Latitude>35.916198</Latitude>
		<Longitude>-83.119224</Longitude>
	</SubRegion>
	<SubRegion>
		<SubName>Coffee</SubName>
		<Population>53357</Population>
		<Income>38151</Income>
		<Latitude>35.488759</Latitude>
		<Longitude>-86.078219</Longitude>
	</SubRegion>
	<SubRegion>
		<SubName>Crockett</SubName>
		<Population>14591</Population>
		<Income>37601</Income>
		<Latitude>35.818795</Latitude>
		<Longitude>-89.132494</Longitude>
	</SubRegion>
	<SubRegion>
		<SubName>Cumberland</SubName>
		<Population>57466</Population>
		<Income>37963</Income>
		<Latitude>35.952398</Latitude>
		<Longitude>-84.994761</Longitude>
	</SubRegion>
	<SubRegion>
		<SubName>Davidson</SubName>
		<Population>658602</Population>
		<Income>46676</Income>
		<Latitude>36.169129</Latitude>
		<Longitude>-86.78479</Longitude>
	</SubRegion>
	<SubRegion>
		<SubName>Decatur</SubName>
		<Population>11661</Population>
		<Income>34146</Income>
		<Latitude>35.603136</Latitude>
		<Longitude>-88.110292</Longitude>
	</SubRegion>
	<SubRegion>
		<SubName>DeKalb</SubName>
		<Population>19164</Population>
		<Income>36713</Income>
		<Latitude>35.986471</Latitude>
		<Longitude>-85.834914</Longitude>
	</SubRegion>
	<SubRegion>
		<SubName>Dickson</SubName>
		<Population>50266</Population>
		<Income>45109</Income>
		<Latitude>36.145533</Latitude>
		<Longitude>-87.364155</Longitude>
	</SubRegion>
	<SubRegion>
		<SubName>Dyer</SubName>
		<Population>38213</Population>
		<Income>38167</Income>
		<Latitude>36.054196</Latitude>
		<Longitude>-89.398306</Longitude>
	</SubRegion>
	<SubRegion>
		<SubName>Fayette</SubName>
		<Population>38690</Population>
		<Income>56297</Income>
		<Latitude>35.196993</Latitude>
		<Longitude>-89.413803</Longitude>
	</SubRegion>
	<SubRegion>
		<SubName>Fentress</SubName>
		<Population>17909</Population>
		<Income>27773</Income>
		<Latitude>36.369888</Latitude>
		<Longitude>-84.937764</Longitude>
	</SubRegion>
	<SubRegion>
		<SubName>Franklin</SubName>
		<Population>41129</Population>
		<Income>41625</Income>
		<Latitude>35.155926</Latitude>
		<Longitude>-86.099203</Longitude>
	</SubRegion>
	<SubRegion>
		<SubName>Gibson</SubName>
		<Population>49457</Population>
		<Income>36981</Income>
		<Latitude>35.991637</Latitude>
		<Longitude>-88.93381</Longitude>
	</SubRegion>
	<SubRegion>
		<SubName>Giles</SubName>
		<Population>28746</Population>
		<Income>38014</Income>
		<Latitude>35.202723</Latitude>
		<Longitude>-87.035319</Longitude>
	</SubRegion>
	<SubRegion>
		<SubName>Grainger</SubName>
		<Population>22702</Population>
		<Income>33185</Income>
		<Latitude>36.277463</Latitude>
		<Longitude>-83.509493</Longitude>
	</SubRegion>
	<SubRegion>
		<SubName>Greene</SubName>
		<Population>68267</Population>
		<Income>35613</Income>
		<Latitude>36.179514</Latitude>
		<Longitude>-82.847485</Longitude>
	</SubRegion>
	<SubRegion>
		<SubName>Grundy</SubName>
		<Population>13498</Population>
		<Income>26644</Income>
		<Latitude>35.393356</Latitude>
		<Longitude>-85.710389</Longitude>
	</SubRegion>
	<SubRegion>
		<SubName>Hamblen</SubName>
		<Population>63074</Population>
		<Income>39316</Income>
		<Latitude>36.218397</Latitude>
		<Longitude>-83.266071</Longitude>
	</SubRegion>
	<SubRegion>
		<SubName>Hamilton</SubName>
		<Population>348673</Population>
		<Income>46544</Income>
		<Latitude>35.159186</Latitude>
		<Longitude>-85.202296</Longitude>
	</SubRegion>
	<SubRegion>
		<SubName>Hancock</SubName>
		<Population>6679</Population>
		<Income>22205</Income>
		<Latitude>36.521419</Latitude>
		<Longitude>-83.227453</Longitude>
	</SubRegion>
	<SubRegion>
		<SubName>Hardeman</SubName>
		<Population>26306</Population>
		<Income>31963</Income>
		<Latitude>35.218785</Latitude>
		<Longitude>-88.988697</Longitude>
	</SubRegion>
	<SubRegion>
		<SubName>Hardin</SubName>
		<Population>26034</Population>
		<Income>33044</Income>
		<Latitude>35.201893</Latitude>
		<Longitude>-88.185696</Longitude>
	</SubRegion>
	<SubRegion>
		<SubName>Hawkins</SubName>
		<Population>56800</Population>
		<Income>36419</Income>
		<Latitude>36.452211</Latitude>
		<Longitude>-82.931386</Longitude>
	</SubRegion>
	<SubRegion>
		<SubName>Haywood</SubName>
		<Population>18224</Population>
		<Income>32827</Income>
		<Latitude>35.58669</Latitude>
		<Longitude>-89.282536</Longitude>
	</SubRegion>
	<SubRegion>
		<SubName>Henderson</SubName>
		<Population>28048</Population>
		<Income>37784</Income>
		<Latitude>35.653994</Latitude>
		<Longitude>-88.387674</Longitude>
	</SubRegion>
	<SubRegion>
		<SubName>Henry</SubName>
		<Population>32210</Population>
		<Income>36593</Income>
		<Latitude>36.325295</Latitude>
		<Longitude>-88.300288</Longitude>
	</SubRegion>
	<SubRegion>
		<SubName>Hickman</SubName>
		<Population>24267</Population>
		<Income>42330</Income>
		<Latitude>35.802291</Latitude>
		<Longitude>-87.467101</Longitude>
	</SubRegion>
	<SubRegion>
		<SubName>Houston</SubName>
		<Population>8292</Population>
		<Income>34595</Income>
		<Latitude>36.285782</Latitude>
		<Longitude>-87.705598</Longitude>
	</SubRegion>
	<SubRegion>
		<SubName>Humphreys</SubName>
		<Population>18243</Population>
		<Income>41943</Income>
		<Latitude>36.040822</Latitude>
		<Longitude>-87.790453</Longitude>
	</SubRegion>
	<SubRegion>
		<SubName>Jackson</SubName>
		<Population>11517</Population>
		<Income>33363</Income>
		<Latitude>36.354241</Latitude>
		<Longitude>-85.674094</Longitude>
	</SubRegion>
	<SubRegion>
		<SubName>Jefferson</SubName>
		<Population>52123</Population>
		<Income>38800</Income>
		<Latitude>36.048479</Latitude>
		<Longitude>-83.440966</Longitude>
	</SubRegion>
	<SubRegion>
		<SubName>Johnson</SubName>
		<Population>17977</Population>
		<Income>30063</Income>
		<Latitude>36.453203</Latitude>
		<Longitude>-81.861247</Longitude>
	</SubRegion>
	<SubRegion>
		<SubName>Knox</SubName>
		<Population>444622</Population>
		<Income>47270</Income>
		<Latitude>35.992726</Latitude>
		<Longitude>-83.937721</Longitude>
	</SubRegion>
	<SubRegion>
		<SubName>Lake</SubName>
		<Population>7731</Population>
		<Income>26212</Income>
		<Latitude>36.333905</Latitude>
		<Longitude>-89.485536</Longitude>
	</SubRegion>
	<SubRegion>
		<SubName>Lauderdale</SubName>
		<Population>27795</Population>
		<Income>32987</Income>
		<Latitude>35.762951</Latitude>
		<Longitude>-89.627732</Longitude>
	</SubRegion>
	<SubRegion>
		<SubName>Lawrence</SubName>
		<Population>41990</Population>
		<Income>36663</Income>
		<Latitude>35.220476</Latitude>
		<Longitude>-87.396546</Longitude>
	</SubRegion>
	<SubRegion>
		<SubName>Lewis</SubName>
		<Population>11961</Population>
		<Income>33956</Income>
		<Latitude>35.523244</Latitude>
		<Longitude>-87.496983</Longitude>
	</SubRegion>
	<SubRegion>
		<SubName>Lincoln</SubName>
		<Population>33633</Population>
		<Income>40904</Income>
		<Latitude>35.142916</Latitude>
		<Longitude>-86.593298</Longitude>
	</SubRegion>
	<SubRegion>
		<SubName>Loudon</SubName>
		<Population>50448</Population>
		<Income>49602</Income>
		<Latitude>35.73745</Latitude>
		<Longitude>-84.316204</Longitude>
	</SubRegion>
	<SubRegion>
		<SubName>McMinn</SubName>
		<Population>52341</Population>
		<Income>38944</Income>
		<Latitude>35.424471</Latitude>
		<Longitude>-84.619962</Longitude>
	</SubRegion>
	<SubRegion>
		<SubName>McNairy</SubName>
		<Population>26140</Population>
		<Income>33066</Income>
		<Latitude>35.175228</Latitude>
		<Longitude>-88.563629</Longitude>
	</SubRegion>
	<SubRegion>
		<SubName>Macon</SubName>
		<Population>22701</Population>
		<Income>35452</Income>
		<Latitude>36.537757</Latitude>
		<Longitude>-86.000959</Longitude>
	</SubRegion>
	<SubRegion>
		<SubName>Madison</SubName>
		<Population>98733</Population>
		<Income>42348</Income>
		<Latitude>35.606056</Latitude>
		<Longitude>-88.833424</Longitude>
	</SubRegion>
	<SubRegion>
		<SubName>Marion</SubName>
		<Population>28374</Population>
		<Income>39817</Income>
		<Latitude>35.133422</Latitude>
		<Longitude>-85.618399</Longitude>
	</SubRegion>
	<SubRegion>
		<SubName>Marshall</SubName>
		<Population>31130</Population>
		<Income>40687</Income>
		<Latitude>35.468387</Latitude>
		<Longitude>-86.765886</Longitude>
	</SubRegion>
	<SubRegion>
		<SubName>Maury</SubName>
		<Population>83761</Population>
		<Income>45603</Income>
		<Latitude>35.615696</Latitude>
		<Longitude>-87.077763</Longitude>
	</SubRegion>
	<SubRegion>
		<SubName>Meigs</SubName>
		<Population>11649</Population>
		<Income>33492</Income>
		<Latitude>35.503397</Latitude>
		<Longitude>-84.823888</Longitude>
	</SubRegion>
	<SubRegion>
		<SubName>Monroe</SubName>
		<Population>45265</Population>
		<Income>36430</Income>
		<Latitude>35.447818</Latitude>
		<Longitude>-84.249705</Longitude>
	</SubRegion>
	<SubRegion>
		<SubName>Montgomery</SubName>
		<Population>184119</Population>
		<Income>49459</Income>
		<Latitude>36.500354</Latitude>
		<Longitude>-87.380887</Longitude>
	</SubRegion>
	<SubRegion>
		<SubName>Moore</SubName>
		<Population>6301</Population>
		<Income>44977</Income>
		<Latitude>35.288888</Latitude>
		<Longitude>-86.358684</Longitude>
	</SubRegion>
	<SubRegion>
		<SubName>Morgan</SubName>
		<Population>21915</Population>
		<Income>37522</Income>
		<Latitude>36.138697</Latitude>
		<Longitude>-84.639262</Longitude>
	</SubRegion>
	<SubRegion>
		<SubName>Obion</SubName>
		<Population>31131</Population>
		<Income>40516</Income>
		<Latitude>36.358171</Latitude>
		<Longitude>-89.149879</Longitude>
	</SubRegion>
	<SubRegion>
		<SubName>Overton</SubName>
		<Population>22075</Population>
		<Income>34119</Income>
		<Latitude>36.34485</Latitude>
		<Longitude>-85.283076</Longitude>
	</SubRegion>
</Region>