<?xml version="1.0" encoding="UTF-8"?><!--
  ~ Copyright (c) Erik Malmstrom-Partridge 2014. Do not distribute, edit, or modify in anyway, without direct written consent of Erik Malmstrom-Partridge.
  -->

<Region>
	<Name>Mississippi</Name>
	<SubRegion>
		<SubName>Adams</SubName>
		<Population>32090</Population>
		<Income>27486</Income>
		<Latitude>31.486218</Latitude>
		<Longitude>-91.351781</Longitude>
	</SubRegion>
	<SubRegion>
		<SubName>Alcorn</SubName>
		<Population>37316</Population>
		<Income>32846</Income>
		<Latitude>34.886569</Latitude>
		<Longitude>-88.581109</Longitude>
	</SubRegion>
	<SubRegion>
		<SubName>Amite</SubName>
		<Population>12899</Population>
		<Income>30471</Income>
		<Latitude>31.203933</Latitude>
		<Longitude>-90.795542</Longitude>
	</SubRegion>
	<SubRegion>
		<SubName>Attala</SubName>
		<Population>19317</Population>
		<Income>31102</Income>
		<Latitude>33.09047</Latitude>
		<Longitude>-89.588622</Longitude>
	</SubRegion>
	<SubRegion>
		<SubName>Benton</SubName>
		<Population>8571</Population>
		<Income>26899</Income>
		<Latitude>34.810518</Latitude>
		<Longitude>-89.200285</Longitude>
	</SubRegion>
	<SubRegion>
		<SubName>Bolivar</SubName>
		<Population>34049</Population>
		<Income>27768</Income>
		<Latitude>33.799139</Latitude>
		<Longitude>-90.88412</Longitude>
	</SubRegion>
	<SubRegion>
		<SubName>Calhoun</SubName>
		<Population>14734</Population>
		<Income>30768</Income>
		<Latitude>33.936634</Latitude>
		<Longitude>-89.337114</Longitude>
	</SubRegion>
	<SubRegion>
		<SubName>Carroll</SubName>
		<Population>10385</Population>
		<Income>30568</Income>
		<Latitude>33.440795</Latitude>
		<Longitude>-89.918887</Longitude>
	</SubRegion>
	<SubRegion>
		<SubName>Chickasaw</SubName>
		<Population>17311</Population>
		<Income>31028</Income>
		<Latitude>33.921654</Latitude>
		<Longitude>-88.945808</Longitude>
	</SubRegion>
	<SubRegion>
		<SubName>Choctaw</SubName>
		<Population>8371</Population>
		<Income>30180</Income>
		<Latitude>33.345964</Latitude>
		<Longitude>-89.251332</Longitude>
	</SubRegion>
	<SubRegion>
		<SubName>Claiborne</SubName>
		<Population>9253</Population>
		<Income>24078</Income>
		<Latitude>31.97281</Latitude>
		<Longitude>-90.915424</Longitude>
	</SubRegion>
	<SubRegion>
		<SubName>Clarke</SubName>
		<Population>16415</Population>
		<Income>31831</Income>
		<Latitude>32.045374</Latitude>
		<Longitude>-88.687976</Longitude>
	</SubRegion>
	<SubRegion>
		<SubName>Clay</SubName>
		<Population>20408</Population>
		<Income>31228</Income>
		<Latitude>33.661733</Latitude>
		<Longitude>-88.783326</Longitude>
	</SubRegion>
	<SubRegion>
		<SubName>Coahoma</SubName>
		<Population>25182</Population>
		<Income>25574</Income>
		<Latitude>34.22867</Latitude>
		<Longitude>-90.603165</Longitude>
	</SubRegion>
	<SubRegion>
		<SubName>Copiah</SubName>
		<Population>28921</Population>
		<Income>36645</Income>
		<Latitude>31.866915</Latitude>
		<Longitude>-90.448758</Longitude>
	</SubRegion>
	<SubRegion>
		<SubName>Covington</SubName>
		<Population>19423</Population>
		<Income>32345</Income>
		<Latitude>31.633331</Latitude>
		<Longitude>-89.548897</Longitude>
	</SubRegion>
	<SubRegion>
		<SubName>DeSoto</SubName>
		<Population>168240</Population>
		<Income>58851</Income>
		<Latitude>34.874266</Latitude>
		<Longitude>-89.99324</Longitude>
	</SubRegion>
	<SubRegion>
		<SubName>Forrest</SubName>
		<Population>77059</Population>
		<Income>35459</Income>
		<Latitude>31.18858</Latitude>
		<Longitude>-89.259447</Longitude>
	</SubRegion>
	<SubRegion>
		<SubName>Franklin</SubName>
		<Population>7931</Population>
		<Income>31819</Income>
		<Latitude>31.477776</Latitude>
		<Longitude>-90.895811</Longitude>
	</SubRegion>
	<SubRegion>
		<SubName>George</SubName>
		<Population>23159</Population>
		<Income>46263</Income>
		<Latitude>30.855431</Latitude>
		<Longitude>-88.642268</Longitude>
	</SubRegion>
	<SubRegion>
		<SubName>Greene</SubName>
		<Population>14244</Population>
		<Income>38836</Income>
		<Latitude>31.212845</Latitude>
		<Longitude>-88.634811</Longitude>
	</SubRegion>
	<SubRegion>
		<SubName>Grenada</SubName>
		<Population>21612</Population>
		<Income>35912</Income>
		<Latitude>33.770031</Latitude>
		<Longitude>-89.80274</Longitude>
	</SubRegion>
	<SubRegion>
		<SubName>Hancock</SubName>
		<Population>45566</Population>
		<Income>43727</Income>
		<Latitude>30.391472</Latitude>
		<Longitude>-89.479964</Longitude>
	</SubRegion>
	<SubRegion>
		<SubName>Harrison</SubName>
		<Population>196500</Population>
		<Income>43593</Income>
		<Latitude>30.416536</Latitude>
		<Longitude>-89.083376</Longitude>
	</SubRegion>
	<SubRegion>
		<SubName>Hinds</SubName>
		<Population>244899</Population>
		<Income>38152</Income>
		<Latitude>32.267788</Latitude>
		<Longitude>-90.466017</Longitude>
	</SubRegion>
	<SubRegion>
		<SubName>Holmes</SubName>
		<Population>18428</Population>
		<Income>22335</Income>
		<Latitude>33.125942</Latitude>
		<Longitude>-90.091197</Longitude>
	</SubRegion>
	<SubRegion>
		<SubName>Humphreys</SubName>
		<Population>8922</Population>
		<Income>24783</Income>
		<Latitude>33.130996</Latitude>
		<Longitude>-90.523421</Longitude>
	</SubRegion>
	<SubRegion>
		<SubName>Issaquena</SubName>
		<Population>1395</Population>
		<Income>24474</Income>
		<Latitude>32.755539</Latitude>
		<Longitude>-91.003535</Longitude>
	</SubRegion>
	<SubRegion>
		<SubName>Itawamba</SubName>
		<Population>23434</Population>
		<Income>36235</Income>
		<Latitude>34.281075</Latitude>
		<Longitude>-88.363127</Longitude>
	</SubRegion>
	<SubRegion>
		<SubName>Jackson</SubName>
		<Population>140450</Population>
		<Income>49750</Income>
		<Latitude>30.456005</Latitude>
		<Longitude>-88.625101</Longitude>
	</SubRegion>
	<SubRegion>
		<SubName>Jasper</SubName>
		<Population>16470</Population>
		<Income>30998</Income>
		<Latitude>32.016989</Latitude>
		<Longitude>-89.11943</Longitude>
	</SubRegion>
	<SubRegion>
		<SubName>Jefferson</SubName>
		<Population>7629</Population>
		<Income>20281</Income>
		<Latitude>31.733633</Latitude>
		<Longitude>-91.043878</Longitude>
	</SubRegion>
	<SubRegion>
		<SubName>JeffersonDavis</SubName>
		<Population>11948</Population>
		<Income>27201</Income>
		<Latitude>0.0</Latitude>
		<Longitude>0.0</Longitude>
	</SubRegion>
	<SubRegion>
		<SubName>Jones</SubName>
		<Population>68961</Population>
		<Income>38233</Income>
		<Latitude>31.616601</Latitude>
		<Longitude>-89.168532</Longitude>
	</SubRegion>
	<SubRegion>
		<SubName>Kemper</SubName>
		<Population>10294</Population>
		<Income>27471</Income>
		<Latitude>32.750136</Latitude>
		<Longitude>-88.625631</Longitude>
	</SubRegion>
	<SubRegion>
		<SubName>Lafayette</SubName>
		<Population>51318</Population>
		<Income>42688</Income>
		<Latitude>34.349298</Latitude>
		<Longitude>-89.485903</Longitude>
	</SubRegion>
	<SubRegion>
		<SubName>Lamar</SubName>
		<Population>58801</Population>
		<Income>50743</Income>
		<Latitude>31.197586</Latitude>
		<Longitude>-89.506369</Longitude>
	</SubRegion>
	<SubRegion>
		<SubName>Lauderdale</SubName>
		<Population>80254</Population>
		<Income>36814</Income>
		<Latitude>32.403998</Latitude>
		<Longitude>-88.660449</Longitude>
	</SubRegion>
	<SubRegion>
		<SubName>Lawrence</SubName>
		<Population>12514</Population>
		<Income>38364</Income>
		<Latitude>31.550009</Latitude>
		<Longitude>-90.10753</Longitude>
	</SubRegion>
	<SubRegion>
		<SubName>Leake</SubName>
		<Population>23389</Population>
		<Income>30862</Income>
		<Latitude>32.760737</Latitude>
		<Longitude>-89.522236</Longitude>
	</SubRegion>
	<SubRegion>
		<SubName>Lee</SubName>
		<Population>85340</Population>
		<Income>41242</Income>
		<Latitude>34.29246</Latitude>
		<Longitude>-88.682383</Longitude>
	</SubRegion>
	<SubRegion>
		<SubName>Leflore</SubName>
		<Population>31607</Population>
		<Income>23659</Income>
		<Latitude>33.54979</Latitude>
		<Longitude>-90.294934</Longitude>
	</SubRegion>
	<SubRegion>
		<SubName>Lincoln</SubName>
		<Population>34810</Population>
		<Income>37176</Income>
		<Latitude>31.535216</Latitude>
		<Longitude>-90.453566</Longitude>
	</SubRegion>
	<SubRegion>
		<SubName>Lowndes</SubName>
		<Population>59922</Population>
		<Income>37508</Income>
		<Latitude>33.471424</Latitude>
		<Longitude>-88.439723</Longitude>
	</SubRegion>
	<SubRegion>
		<SubName>Madison</SubName>
		<Population>100412</Population>
		<Income>60195</Income>
		<Latitude>32.63437</Latitude>
		<Longitude>-90.03416</Longitude>
	</SubRegion>
	<SubRegion>
		<SubName>Marion</SubName>
		<Population>26180</Population>
		<Income>31865</Income>
		<Latitude>31.230167</Latitude>
		<Longitude>-89.821712</Longitude>
	</SubRegion>
	<SubRegion>
		<SubName>Marshall</SubName>
		<Population>36515</Population>
		<Income>34459</Income>
		<Latitude>34.76619</Latitude>
		<Longitude>-89.504231</Longitude>
	</SubRegion>
	<SubRegion>
		<SubName>Monroe</SubName>
		<Population>36116</Population>
		<Income>35370</Income>
		<Latitude>33.89003</Latitude>
		<Longitude>-88.485038</Longitude>
	</SubRegion>
	<SubRegion>
		<SubName>Montgomery</SubName>
		<Population>10553</Population>
		<Income>30440</Income>
		<Latitude>33.500714</Latitude>
		<Longitude>-89.639625</Longitude>
	</SubRegion>
	<SubRegion>
		<SubName>Neshoba</SubName>
		<Population>29507</Population>
		<Income>37893</Income>
		<Latitude>32.752518</Latitude>
		<Longitude>-89.119274</Longitude>
	</SubRegion>
	<SubRegion>
		<SubName>Newton</SubName>
		<Population>21689</Population>
		<Income>35907</Income>
		<Latitude>32.40197</Latitude>
		<Longitude>-89.118412</Longitude>
	</SubRegion>
	<SubRegion>
		<SubName>Noxubee</SubName>
		<Population>11089</Population>
		<Income>22652</Income>
		<Latitude>33.106508</Latitude>
		<Longitude>-88.566004</Longitude>
	</SubRegion>
	<SubRegion>
		<SubName>Oktibbeha</SubName>
		<Population>49043</Population>
		<Income>29430</Income>
		<Latitude>33.422313</Latitude>
		<Longitude>-88.876151</Longitude>
	</SubRegion>
	<SubRegion>
		<SubName>Panola</SubName>
		<Population>34402</Population>
		<Income>36147</Income>
		<Latitude>34.365205</Latitude>
		<Longitude>-89.963065</Longitude>
	</SubRegion>
	<SubRegion>
		<SubName>PearlRiver</SubName>
		<Population>55072</Population>
		<Income>41940</Income>
		<Latitude>0.0</Latitude>
		<Longitude>0.0</Longitude>
	</SubRegion>
	<SubRegion>
		<SubName>Perry</SubName>
		<Population>12131</Population>
		<Income>35942</Income>
		<Latitude>31.169307</Latitude>
		<Longitude>-88.988755</Longitude>
	</SubRegion>
	<SubRegion>
		<SubName>Pike</SubName>
		<Population>40014</Population>
		<Income>35212</Income>
		<Latitude>31.177517</Latitude>
		<Longitude>-90.397725</Longitude>
	</SubRegion>
	<SubRegion>
		<SubName>Pontotoc</SubName>
		<Population>30897</Population>
		<Income>40260</Income>
		<Latitude>34.227081</Latitude>
		<Longitude>-89.037239</Longitude>
	</SubRegion>
	<SubRegion>
		<SubName>Prentiss</SubName>
		<Population>25388</Population>
		<Income>33294</Income>
		<Latitude>34.621104</Latitude>
		<Longitude>-88.522179</Longitude>
	</SubRegion>
	<SubRegion>
		<SubName>Quitman</SubName>
		<Population>7803</Population>
		<Income>23115</Income>
		<Latitude>34.252833</Latitude>
		<Longitude>-90.290171</Longitude>
	</SubRegion>
	<SubRegion>
		<SubName>Rankin</SubName>
		<Population>146767</Population>
		<Income>57593</Income>
		<Latitude>32.267123</Latitude>
		<Longitude>-89.946063</Longitude>
	</SubRegion>
	<SubRegion>
		<SubName>Scott</SubName>
		<Population>28273</Population>
		<Income>35074</Income>
		<Latitude>32.427127</Latitude>
		<Longitude>-89.533209</Longitude>
	</SubRegion>
	<SubRegion>
		<SubName>Sharkey</SubName>
		<Population>4708</Population>
		<Income>32340</Income>
		<Latitude>32.892395</Latitude>
		<Longitude>-90.827613</Longitude>
	</SubRegion>
	<SubRegion>
		<SubName>Simpson</SubName>
		<Population>27500</Population>
		<Income>37977</Income>
		<Latitude>31.902505</Latitude>
		<Longitude>-89.917709</Longitude>
	</SubRegion>
	<SubRegion>
		<SubName>Smith</SubName>
		<Population>16225</Population>
		<Income>36519</Income>
		<Latitude>32.019029</Latitude>
		<Longitude>-89.494877</Longitude>
	</SubRegion>
	<SubRegion>
		<SubName>Stone</SubName>
		<Population>18016</Population>
		<Income>42862</Income>
		<Latitude>30.790184</Latitude>
		<Longitude>-89.112297</Longitude>
	</SubRegion>
	<SubRegion>
		<SubName>Sunflower</SubName>
		<Population>27997</Population>
		<Income>26611</Income>
		<Latitude>33.605529</Latitude>
		<Longitude>-90.59509</Longitude>
	</SubRegion>
	<SubRegion>
		<SubName>Tallahatchie</SubName>
		<Population>15081</Population>
		<Income>27689</Income>
		<Latitude>33.954527</Latitude>
		<Longitude>-90.172245</Longitude>
	</SubRegion>
	<SubRegion>
		<SubName>Tate</SubName>
		<Population>28373</Population>
		<Income>43277</Income>
		<Latitude>34.649553</Latitude>
		<Longitude>-89.943105</Longitude>
	</SubRegion>
	<SubRegion>
		<SubName>Tippah</SubName>
		<Population>22084</Population>
		<Income>34523</Income>
		<Latitude>34.763618</Latitude>
		<Longitude>-88.918819</Longitude>
	</SubRegion>
	<SubRegion>
		<SubName>Tishomingo</SubName>
		<Population>19529</Population>
		<Income>32878</Income>
		<Latitude>34.737697</Latitude>
		<Longitude>-88.236064</Longitude>
	</SubRegion>
	<SubRegion>
		<SubName>Tunica</SubName>
		<Population>10560</Population>
		<Income>30463</Income>
		<Latitude>34.652201</Latitude>
		<Longitude>-90.37177</Longitude>
	</SubRegion>
	<SubRegion>
		<SubName>Union</SubName>
		<Population>27754</Population>
		<Income>36582</Income>
		<Latitude>34.489533</Latitude>
		<Longitude>-89.002339</Longitude>
	</SubRegion>
	<SubRegion>
		<SubName>Walthall</SubName>
		<Population>14931</Population>
		<Income>32260</Income>
		<Latitude>31.164492</Latitude>
		<Longitude>-90.103431</Longitude>
	</SubRegion>
	<SubRegion>
		<SubName>Warren</SubName>
		<Population>48218</Population>
		<Income>40876</Income>
		<Latitude>32.356095</Latitude>
		<Longitude>-90.852384</Longitude>
	</SubRegion>
	<SubRegion>
		<SubName>Washington</SubName>
		<Population>49688</Population>
		<Income>27610</Income>
		<Latitude>33.273174</Latitude>
		<Longitude>-90.944446</Longitude>
	</SubRegion>
	<SubRegion>
		<SubName>Wayne</SubName>
		<Population>20539</Population>
		<Income>30783</Income>
		<Latitude>31.642475</Latitude>
		<Longitude>-88.678212</Longitude>
	</SubRegion>
	<SubRegion>
		<SubName>Webster</SubName>
		<Population>9987</Population>
		<Income>35391</Income>
		<Latitude>33.612048</Latitude>
		<Longitude>-89.283836</Longitude>
	</SubRegion>
	<SubRegion>
		<SubName>Wilkinson</SubName>
		<Population>9381</Population>
		<Income>35960</Income>
		<Latitude>31.161091</Latitude>
		<Longitude>-91.324617</Longitude>
	</SubRegion>
	<SubRegion>
		<SubName>Winston</SubName>
		<Population>18788</Population>
		<Income>32094</Income>
		<Latitude>33.078724</Latitude>
		<Longitude>-89.037391</Longitude>
	</SubRegion>
	<SubRegion>
		<SubName>Yalobusha</SubName>
		<Population>12373</Population>
		<Income>32343</Income>
		<Latitude>34.030666</Latitude>
		<Longitude>-89.703807</Longitude>
	</SubRegion>
	<SubRegion>
		<SubName>Yazoo</SubName>
		<Population>27883</Population>
		<Income>26769</Income>
		<Latitude>32.765675</Latitude>
		<Longitude>-90.387928</Longitude>
	</SubRegion>
</Region>