<?xml version="1.0" encoding="UTF-8"?><!--
  ~ Copyright (c) Erik Malmstrom-Partridge 2014. Do not distribute, edit, or modify in anyway, without direct written consent of Erik Malmstrom-Partridge.
  -->

<Region>
	<Name>Wyoming</Name>
	<SubRegion>
		<SubName>Albany</SubName>
		<Population>37422</Population>
		<Income>42882</Income>
		<Latitude>41.665514</Latitude>
		<Longitude>-105.721883</Longitude>
	</SubRegion>
	<SubRegion>
		<SubName>BigHorn</SubName>
		<Population>11994</Population>
		<Income>51002</Income>
		<Latitude>44.525117</Latitude>
		<Longitude>-107.994848</Longitude>
	</SubRegion>
	<SubRegion>
		<SubName>Campbell</SubName>
		<Population>48176</Population>
		<Income>77090</Income>
		<Latitude>44.191999</Latitude>
		<Longitude>-105.517014</Longitude>
	</SubRegion>
	<SubRegion>
		<SubName>Carbon</SubName>
		<Population>15748</Population>
		<Income>57787</Income>
		<Latitude>41.70359</Latitude>
		<Longitude>-106.933153</Longitude>
	</SubRegion>
	<SubRegion>
		<SubName>Converse</SubName>
		<Population>14313</Population>
		<Income>62554</Income>
		<Latitude>42.974898</Latitude>
		<Longitude>-105.505917</Longitude>
	</SubRegion>
	<SubRegion>
		<SubName>Crook</SubName>
		<Population>7184</Population>
		<Income>51319</Income>
		<Latitude>44.589266</Latitude>
		<Longitude>-104.567298</Longitude>
	</SubRegion>
	<SubRegion>
		<SubName>Fremont</SubName>
		<Population>40998</Population>
		<Income>48565</Income>
		<Latitude>43.054831</Latitude>
		<Longitude>-108.608935</Longitude>
	</SubRegion>
	<SubRegion>
		<SubName>Goshen</SubName>
		<Population>13612</Population>
		<Income>43401</Income>
		<Latitude>42.08958</Latitude>
		<Longitude>-104.353482</Longitude>
	</SubRegion>
	<SubRegion>
		<SubName>HotSprings</SubName>
		<Population>4847</Population>
		<Income>41786</Income>
		<Latitude>43.720209</Latitude>
		<Longitude>-108.435076</Longitude>
	</SubRegion>
	<SubRegion>
		<SubName>Johnson</SubName>
		<Population>8628</Population>
		<Income>57175</Income>
		<Latitude>44.044048</Latitude>
		<Longitude>-106.588541</Longitude>
	</SubRegion>
	<SubRegion>
		<SubName>Laramie</SubName>
		<Population>95809</Population>
		<Income>54596</Income>
		<Latitude>41.29283</Latitude>
		<Longitude>-104.660395</Longitude>
	</SubRegion>
	<SubRegion>
		<SubName>Lincoln</SubName>
		<Population>18364</Population>
		<Income>62542</Income>
		<Latitude>42.229993</Latitude>
		<Longitude>-110.682961</Longitude>
	</SubRegion>
	<SubRegion>
		<SubName>Natrona</SubName>
		<Population>80973</Population>
		<Income>55786</Income>
		<Latitude>42.973602</Latitude>
		<Longitude>-106.76507</Longitude>
	</SubRegion>
	<SubRegion>
		<SubName>Niobrara</SubName>
		<Population>2541</Population>
		<Income>39107</Income>
		<Latitude>43.062159</Latitude>
		<Longitude>-104.468373</Longitude>
	</SubRegion>
	<SubRegion>
		<SubName>Park</SubName>
		<Population>29227</Population>
		<Income>51449</Income>
		<Latitude>44.492387</Latitude>
		<Longitude>-109.593597</Longitude>
	</SubRegion>
	<SubRegion>
		<SubName>Platte</SubName>
		<Population>8765</Population>
		<Income>44917</Income>
		<Latitude>42.131593</Latitude>
		<Longitude>-104.953963</Longitude>
	</SubRegion>
	<SubRegion>
		<SubName>Sheridan</SubName>
		<Population>29824</Population>
		<Income>52352</Income>
		<Latitude>44.781369</Latitude>
		<Longitude>-106.881211</Longitude>
	</SubRegion>
	<SubRegion>
		<SubName>Sublette</SubName>
		<Population>10041</Population>
		<Income>79776</Income>
		<Latitude>42.767928</Latitude>
		<Longitude>-109.91617</Longitude>
	</SubRegion>
	<SubRegion>
		<SubName>Sweetwater</SubName>
		<Population>45237</Population>
		<Income>72139</Income>
		<Latitude>41.660328</Latitude>
		<Longitude>-108.875677</Longitude>
	</SubRegion>
	<SubRegion>
		<SubName>Teton</SubName>
		<Population>22268</Population>
		<Income>69020</Income>
		<Latitude>44.048656</Latitude>
		<Longitude>-110.585825</Longitude>
	</SubRegion>
	<SubRegion>
		<SubName>Uinta</SubName>
		<Population>21066</Population>
		<Income>59714</Income>
		<Latitude>41.284726</Latitude>
		<Longitude>-110.558947</Longitude>
	</SubRegion>
	<SubRegion>
		<SubName>Washakie</SubName>
		<Population>8463</Population>
		<Income>44519</Income>
		<Latitude>43.878831</Latitude>
		<Longitude>-107.669052</Longitude>
	</SubRegion>
	<SubRegion>
		<SubName>Weston</SubName>
		<Population>7158</Population>
		<Income>53802</Income>
		<Latitude>43.846213</Latitude>
		<Longitude>-104.57002</Longitude>
	</SubRegion>
</Region>